Restaurant_Name,Category,Pricing_for_2,Locality,Dining_Rating,Dining_Review_Count,Delivery_Rating,Delivery_Rating_Count,Website,Address,Phone_No,Latitude,Longitude
Bengaluru Cafe,South Indian,100," Jayanagar, Bangalore",4.3,288.0,3.9,0.0,https://www.zomato.com/bangalore/bengaluru-cafe-jayanagar-bangalore,"6, 9th Cross, 9th Main Road, 2nd Block, Jayanagar, Bangalore",9.18E+11,13.05042275,77.57698761
The Konkan - Seafood Restaurant,"Konkan, Mangalorean, Chinese, Beverages",750," St. Marks Road, Bangalore",4.3,282.0,3.9,42.0,https://www.zomato.com/bangalore/the-konkan-seafood-restaurant-st-marks-road,"48/1, 1st Floor, Church Street, St. Marks Road, Bangalore",9.20E+11,12.97567912,77.60180399
Chikkanna Tiffin Room,South Indian,200," City Market, Bangalore",4.3,262.0,4.4,339.0,https://www.zomato.com/bangalore/chikkanna-tiffin-room-city-market,"32/1, 30th Cross, Cubbonpet Main Road, Chickpet, City Market, Bangalore",9.20E+11,12.968444,77.584417
Siddiqu Kabab Center,"Kebab, Fast Food, Rolls",150," Richmond Road, Bangalore",4.3,292.0,4.3,923.0,https://www.zomato.com/bangalore/siddiqu-kabab-center-richmond-road,"44, Aga Abudullah Street, Richmond Road, Bangalore",9.20E+11,12.96304767,77.60582127
Apsara Ice Creams,Ice Cream,300," HSR, Bangalore",4.3,280.0,4.5,715.0,https://www.zomato.com/bangalore/apsara-ice-creams-hsr-bangalore,"32/1, Ground Floor, 14th Cross, 9th Main, Sector 6, HSR Layout, HSR, Bangalore",9.19E+11,12.91516971,77.63556194
Kebapci,"BBQ, Turkish, Middle Eastern, Lebanese",650," Koramangala 6th Block, Bangalore",4.2,277.0,4.0,636.0,https://www.zomato.com/bangalore/kebapci-koramangala-6th-block-bangalore,"74, KHB Colony, 17th E Main Road, Koramangala 6th Block, Bangalore",9.20E+11,12.936221,77.622319
Grill Daddy,"American, Pizza, Burger, Steak, Sandwich, Continental, Beverages",800," Koramangala 1st Block, Bangalore",4.2,266.0,3.8,821.0,https://www.zomato.com/bangalore/grill-daddy-koramangala-1st-block-bangalore,"42, 1st Floor, 1st Main, Koramangala 1st Block, Bangalore",9.16E+11,12.929122,77.634665
Mangalore Pearl - Seafood Restaurant,"Mangalorean, Seafood",650," Ulsoor, Bangalore",4.2,204.0,4.1,419.0,https://www.zomato.com/bangalore/mangalore-pearl-seafood-restaurant-ulsoor-bangalore,"5/1, Skywalk Building, Assaye Road, Ulsoor, Bangalore",9.18E+11,12.99087123,77.61932451
Flax,"Cafe, Healthy Food, Salad",700," Indiranagar, Bangalore",4.2,201.0,4.2,1457.0,https://www.zomato.com/bangalore/flax-indiranagar-bangalore,"2212, HAL 3rd Stage, 80 Feet Road, Indiranagar, Bangalore",9.16E+11,12.967885,77.648157
Noon's,Biryani,300," HSR, Bangalore",4.2,211.0,4.2,465.0,https://www.zomato.com/bangalore/noons-hsr,"664, 9th Main, 25th Cross, Opposite Karur Vysya Bank, Sector 7, HSR, Bangalore",9.19E+11,12.90813144,77.63484478
The Bistro @ Global Village,"Mangalorean, Chinese, Mughlai, North Indian, Andhra",1000," Rajarajeshwari Nagar, Bangalore",4.2,199.0,4.2,867.0,https://www.zomato.com/bangalore/the-bistro-@-global-village-rajarajeshwari-nagar-bangalore,"687/671, B.E.M.L Layout, 7th stage, Mylasandra, Rajarajeshwari Nagar, Bangalore",9.16E+11,12.91489651,77.50098947
Hotel Dwarka,South Indian,100," Basavanagudi, Bangalore",4.2,320.0,3.5,0.0,https://www.zomato.com/bangalore/hotel-dwarka-basavanagudi,"Near Katte Balaga, NR Colony, Basavanagudi, Bangalore",9.18E+11,12.93790278,77.5677577
SGS Non Veg - Gundu Pulav,South Indian,500," City Market, Bangalore",4.2,240.0,4.5,1506.0,https://www.zomato.com/bangalore/sgs-non-veg-gundu-pulav-city-market-bangalore,"21, Sowrastrapet, KV Temple Street, 2nd Cross, Near Chikpet Police Station, City Market, Bangalore",9.19E+11,12.970265,77.573028
Italian Creamery,"Desserts, Ice Cream, Beverages",300," HSR, Bangalore",4.2,220.0,4.3,159.0,https://www.zomato.com/bangalore/italian-creamery-hsr-bangalore,"1090L, 18Th Main Road, Sector 3, HSR, Bangalore",9.20E+11,12.91181089,77.64120229
Vera Italiano,"Italian, Pizza, Pasta",600," Kalyan Nagar, Bangalore",4.2,252.0,4.3,691.0,https://www.zomato.com/bangalore/vera-italiano-kalyan-nagar,"5M-402/A, 2nd Floor, HRBR 2nd Block, 5th Main Road, Kalyan Nagar, Bangalore",9.18E+11,13.0220141,77.63985749
Hotel Navayuga,Andhra,500," Majestic, Bangalore",4.2,278.0,4.3,1182.0,https://www.zomato.com/bangalore/hotel-navayuga-majestic,"1, Anupama Theater Complex, SC Road, Gandhi Nagar, Majestic, Bangalore",9.19E+11,12.97605387,77.57554416
Eating Love,Italian,700," Sarjapur Road, Bangalore",4.2,218.0,4.2,478.0,https://www.zomato.com/bangalore/eating-love-sarjapur-road,"1630/1504/05, Ground Floor, Kasavanhalli Hobli, Near Bata Show Room, Sarjapur Road, Bangalore",9.20E+11,12.91080631,77.68079303
Breads And Banter,"Fast Food, Continental, Desserts",700," Brookefield, Bangalore",4.2,247.0,3.8,3.0,https://www.zomato.com/bangalore/breads-and-banter-brookefield-bangalore,"620, Ground Floor, C Block, AECS Layout, Kundalahalli, Brookefield, Bangalore",9.20E+11,12.96417751,77.7170109
Upahara Darshini,South Indian,150," Basavanagudi, Bangalore",4.2,275.0,3.8,0.0,https://www.zomato.com/bangalore/upahara-darshini-basavanagudi,"DVG Road, Gandhi Bazar, Basavanagudi, Bangalore",9.18E+11,12.93937223,77.57126302
Gavran Misal,Maharashtrian,250," HSR, Bangalore",4.2,189.0,4.3,712.0,https://www.zomato.com/bangalore/gavran-misal-1-hsr-bangalore,"627, 1st Floor, 27th Main Road, Opposite HDFC Bank, Sector 1, HSR, Bengaluru",9.20E+11,12.91593735,77.65172761
The Roastery,Cafe,500," Kalyan Nagar, Bangalore",4.2,229.0,3.8,0.0,https://www.zomato.com/bangalore/the-roastery-kalyan-nagar-bangalore,"5th A Main Road, 2nd Block, HRBR Layout, Kalyan Nagar, Bangalore",9.20E+11,13.02223067,77.64003485
Agape,"Lebanese, Arabian",300," Kalyan Nagar, Bangalore",4.2,166.0,3.4,0.0,https://www.zomato.com/bangalore/agape-3-kalyan-nagar,"428, 7th Main Road, HRBR Layout 1st Block, Kalyan Nagar, Bangalore",9.20E+11,13.02270236,77.6434426
Bombay Chowpaty Kulfi,"Ice Cream, Sandwich, Fast Food, Street Food, Beverages",300," Frazer Town, Bangalore",4.2,292.0,3.9,26.0,https://www.zomato.com/bangalore/bombay-chowpaty-kulfi-frazer-town-bangalore,"41/B, Mosque Complex, MM Road, Frazer Town, Bangalore",9.18E+11,13.00073069,77.61512853
Shakes Theory,"Beverages, Fast Food",400," Jayanagar, Bangalore",4.2,172.0,4.6,1435.0,https://www.zomato.com/bangalore/shakes-theory-1-jayanagar-bangalore,"766/25 1, 47th A Cross, Near Sangam Circle, Adarsh Gardens Apartments Road, 8th Block, Jayanagar, Bangalore",9.20E+11,12.91711772,77.57765874
Churn,"Desserts, Ice Cream, Fast Food",250," New BEL Road, Bangalore",4.2,123.0,4.4,132.0,https://www.zomato.com/bangalore/churn-1-new-bel-road-bangalore,"146, 2nd Cross Road, Jaladarsini Layout, Mathikere, New BEL Road, Bangalore",9.18E+11,13.03418623,77.56955411
Budapest Bake Inn,"Fast Food, Desserts, Beverages",500," BTM, Bangalore",4.2,171.0,4.0,1580.0,https://www.zomato.com/bangalore/budapest-bake-inn-btm-bangalore,"799, Ground Floor, 7th Cross, 15th Main, Micolayout, 2nd Stage, BTM, Bangalore",9.18E+11,12.91389782,77.60979831
Disney Bakery,Fast Food,100," BTM, Bangalore",4.2,319.0,3.9,0.0,https://www.zomato.com/bangalore/disney-bakery-btm,"305, Near HDFC ATM, 7th Cross,  2nd Stage, BTM, Bangalore",9.20E+11,12.91367723,77.60723244
Drunken Monkey,Beverages,400," Bannerghatta Road, Bangalore",4.2,301.0,3.9,1156.0,https://www.zomato.com/bangalore/drunken-monkey-bannerghatta-road,"54/55, 3rd Cross, Omkar Nagar, Arekere Gate, Bannerghatta Road, Bangalore",9.19E+11,12.89067625,77.5969978
New Modern Hotel,"South Indian, Beverages",150," Basavanagudi, Bangalore",4.2,329.0,3.2,0.0,https://www.zomato.com/bangalore/new-modern-hotel-basavanagudi,"Near Minerva Circle, AN Krishanrao Road, V V Puram, Basavanagudi, Bangalore",9.18E+11,12.95446037,77.57881578
Daily Sushi,"Japanese, Korean, Sushi, Asian",800," HSR, Bangalore",4.1,95.0,4.1,511.0,https://www.zomato.com/bangalore/daily-sushi-hsr-bangalore,"1212, 4th Floor, SBM Fortune, 3rd Sector, 22nd Cross Road, HSR, Bangalore",9.16E+11,12.90925532,77.63869744
Coal Spark,"North Indian, Seafood, BBQ, Chinese, Mughlai, Lebanese, Fast Food, Biryani",1000," HSR, Bangalore",4.1,136.0,4.1,2194.0,https://www.zomato.com/bangalore/coal-spark-hsr-bangalore,"At 1567, Ground Floor, NGR Complex, 27Th Main, HSR Layout, BTM Layout, B.B.M.P South(Karnataka)",9.18E+11,12.90362707,77.65000094
Mayuri,"Andhra, North Indian, Chinese, Beverages",800," JP Nagar, Bangalore",4.1,180.0,4.2,801.0,https://www.zomato.com/bangalore/mayuri-1-jp-nagar-bangalore,"N-7, 1st Phase, TMC Layout, 24th Main Road, JP Nagar, Bangalore",9.16E+11,12.91263671,77.58569229
Hustle,"Tea, Fast Food, Beverages, Continental",700," HSR, Bangalore",4.1,126.0,4.2,14.0,https://www.zomato.com/bangalore/hustle-hsr-bangalore,"188/A, 22nd Cross, 3rd Sector, HSR, Bangalore",9.20E+11,12.90925564,77.64250115
The Light House Restaurant,"North Indian, Chinese, Seafood",700," New BEL Road, Bangalore",4.1,215.0,4.0,646.0,https://www.zomato.com/bangalore/the-light-house-restaurant-new-bel-road-bangalore,"62, 80 Feet Road, Near MS Ramaiah Hospital, Opposite To Apple Store, Devasandra Village, RMV 2nd Stage, New BEL Road, Bangalore",9.17E+11,13.02803001,77.57207237
Tata Cha,"Cafe, Tea, Beverages, Street Food",300," Jayanagar, Bangalore",4.1,240.0,3.9,127.0,https://www.zomato.com/bangalore/tata-cha-jayanagar-bangalore,"1/21, Chalamma Complex, 9th Main Road, 32nd Cross Road, 4th Block, Jayanagar, Bangalore",9.20E+11,12.92689351,77.58367024
Iyer Idly,South Indian,150," Thippasandra, Bangalore",4.1,145.0,3.1,0.0,https://www.zomato.com/bangalore/iyer-idly-thippasandra,"2, Kariyappa Building, Kuvempu Road, Vignan Nagar, Thippasandra, Bangalore",9.20E+11,12.97244822,77.67995652
Kulcha Stories,"North Indian, Street Food, Beverages",300," Koramangala 5th Block, Bangalore",4.1,132.0,3.7,272.0,https://www.zomato.com/bangalore/kulcha-stories-1-koramangala-5th-block-bangalore,"Shop 49/5, 1st Floor, 1st Main, Industrial Layout, Koramangala 5th Block, Bangalore",9.20E+11,12.9343616,77.61632111
The Yellow Tree,"Italian, Desserts",700," Hennur, Bangalore",4.1,217.0,3.8,143.0,https://www.zomato.com/bangalore/the-yellow-tree-hennur-bangalore,"1, Premier Park, Kothanur, Doddagubbi Road, Near Saiacs CEO Centre, Hennur, Bangalore",9.20E+11,13.06325792,77.65533451
Hi Seoul,Korean,800," Kalyan Nagar, Bangalore",4.1,246.0,4.4,406.0,https://www.zomato.com/bangalore/hi-seoul-kalyan-nagar,"309, 7th Main Road, HRBR Layout, 2nd Block, Kalyan Nagar, Bangalore",9.18E+11,13.02014857,77.64304798
Kebarbiq Restaurant,"BBQ, Arabian, Continental, North Indian, Middle Eastern, Chinese, Beverages",800," HSR, Bangalore",4.1,295.0,4.1,1279.0,https://www.zomato.com/bangalore/kebarbiq-restaurant-hsr-bangalore,"445, Ground Floor, 17th Cross Road, Sector 4, HSR, Bangalore",9.20E+11,12.91229063,77.64247399
Draggers Café,"Cafe, Continental, North Indian, Chinese, Fast Food, Beverages",900," Kalyan Nagar, Bangalore",4.1,327.0,3.9,85.0,https://www.zomato.com/bangalore/draggers-café-kalyan-nagar,"527, 4th Floor, 4th Cross, CMR Road, 2nd Block, HRBR Layout, Kalyan Nagar, Bangalore",9.20E+11,13.02133433,77.64170118
Cuppa Redefined,"Continental, Fast Food, Healthy Food, Desserts, Beverages",600," HSR, Bangalore",4.1,174.0,3.4,102.0,https://www.zomato.com/bangalore/cuppa-redefined-hsr-bangalore,"1237, Ground Floor, Sri Sai Crystal HSR layout, 7th sector, Bangalore",9.20E+11,12.91159782,77.63107493
Sampurna,"Andhra, South Indian, Biryani, Beverages",700," Ulsoor, Bangalore",4.1,153.0,3.9,205.0,https://www.zomato.com/bangalore/sampurna-1-ulsoor-bangalore,"1/2, Cambridge Cross Road, Ulsoor, Bangalore",9.20E+11,12.9725152,77.62610044
Cake Delight,Desserts,300," Sahakara Nagar, Bangalore",4.1,131.0,4.4,187.0,https://www.zomato.com/bangalore/cake-delight-sahakara-nagar-bangalore,"554, 1st Floor, F Block, Byatarayanpura, Sahakara Nagar, Bangalore",9.16E+11,13.063066,77.587019
Al-Badia Restaurant,"Arabian, Lebanese",650," Kammanahalli, Bangalore",4.1,168.0,3.7,657.0,https://www.zomato.com/bangalore/al-badia-restaurant-kammanahalli-bangalore,"959, 5th Main, 2nd Block, Kammanahalli, Bangalore",9.17E+11,13.0153078,77.63933748
Britalian,"Italian, British, Beverages, Desserts",1000," Frazer Town, Bangalore",4.1,175.0,3.9,31.0,https://www.zomato.com/bangalore/britalian-frazer-town-bangalore,"11/1, Jayamahal Extension, Nandi Durga Road, Opposite Indian Bank, Frazer Town, Bangalore",9.18E+11,12.99919463,77.6000914
Siddappa Hotel,South Indian,150," Richmond Road, Bangalore",4.1,316.0,3.6,0.0,https://www.zomato.com/bangalore/siddappa-hotel-richmond-road,"38, 7th Main, 5th Cross, SR Nagar, Richmond Road, Bangalore",9.20E+11,12.96590427,77.59091154
Bearfoot Bistro,"Cafe, Fast Food, Italian, Desserts",650," Koramangala 6th Block, Bangalore",4.1,222.0,4.4,442.0,https://www.zomato.com/bangalore/bearfoot-bistro-koramangala-6th-block-bangalore,"465C, 17th G Main, 80 Feet Road, Koramangala 6th Block, Bangalore",9.19E+11,12.94063713,77.62410957
Dhuaan,"Fast Food, Chinese",700," Koramangala 5th Block, Bangalore",4.1,229.0,3.8,0.0,https://www.zomato.com/bangalore/dhuaan-koramangala-5th-block,"66, 1st Floor, JNC Road, Koramangala 5th Block, Bangalore",9.20E+11,12.93306498,77.61477482
Sanman,"South Indian, North Indian, Chinese, Fast Food",600," Seshadripuram, Bangalore",4.1,201.0,3.9,0.0,https://www.zomato.com/bangalore/sanman-seshadripuram,"212, Subedar Chatram Road, Nagappa Road, VV Giri Colony, Seshadripuram, Bangalore",9.18E+11,12.98635855,77.57442232
Pizzeria Locale,"Pizza, Fast Food, Italian, Beverages, Pasta",700," Kalyan Nagar, Bangalore",4.1,207.0,3.6,477.0,https://www.zomato.com/bangalore/pizzeria-locale-1-kalyan-nagar-bangalore,"701, 5 D Cross, 2nd Block, HRBR Layout, Kalyan Nagar, Bangalore",9.20E+11,13.025218,77.64347
Happy Belly Bakes,"Bakery, Cafe, Desserts, Beverages",500," MG Road, Bangalore",4.1,198.0,4.4,352.0,https://www.zomato.com/bangalore/happy-belly-bakes-mg-road,"6/2, Primrose Road, MG Road, Bangalore",9.18E+11,12.971673,77.61261
Eddy's Cafe,"Cafe, American, Salad, Continental, Healthy Food, Italian",800," Indiranagar, Bangalore",4.1,244.0,3.9,253.0,https://www.zomato.com/bangalore/eddys-cafe-indiranagar-bangalore,"314, 6th Main, Defence Colony, 2nd Stage, Indiranagar, Bangalore",9.16E+11,12.97388284,77.6449272
The Studio Cafe,Cafe,400," Jayanagar, Bangalore",4.1,112.0,3.9,17.0,https://www.zomato.com/bangalore/the-studio-cafe-jayanagar-bangalore,"28, Patalamma Temple Street, South End Circle, 2 Block, Jayanagar, Bangalore",9.18E+11,12.93753811,77.57951785
Snoopy Paws Cafe,"Continental, Fast Food, Beverages",700," Yelahanka, Bangalore",4.1,70.0,3.5,0.0,https://www.zomato.com/bangalore/snoopy-paws-cafe-yelahanka-bangalore,"Survey 4/2, Yarappanahalli Main Road, Yelahanka, Bangalore",9.19E+11,13.0913393,77.658541
Cafe Aira,"Fast Food, Chinese, Desserts, Beverages",450," Basavanagudi, Bangalore",4.1,298.0,3.8,242.0,https://www.zomato.com/bangalore/cafe-aira-basavanagudi,"23, Lalbagh West Gate, Kanakapura Road, Near SRS Petrol Pump, Basavanagudi, Bangalore",9.16E+11,12.94535878,77.57703714
Nu Air Premium Cafe,"Fast Food, North Indian, Mughlai, Finger Food, Pizza",800," Frazer Town, Bangalore",4.1,178.0,3.9,0.0,https://www.zomato.com/bangalore/nu-air-premium-cafe-frazer-town-bangalore,"65, 4th Floor, Coles Road, Frazer Town, Bangalore",9.20E+11,12.99516234,77.61420786
5th Avenue Cafe,"Cafe, Italian, Continental",700," Koramangala 5th Block, Bangalore",4.1,128.0,3.9,32.0,https://www.zomato.com/bangalore/5th-avenue-cafe-koramangala-5th-block-bangalore,"44, Terrace Floor, 4th B-Cross Road, Industrial Layout, Koramangala 5th Block, Bangalore",9.18E+11,12.934072,77.615702
Dodo's Smokehouse,"Burger, Pizza, Chinese, Italian, Beverages",650," Electronic City, Bangalore",4.1,65.0,4.0,447.0,https://www.zomato.com/bangalore/dodos-smokehouse-electronic-city-bangalore,"272, 2nd Cross, Neeladri Main Road, Opposite Axis Bank, Electronic City, Bangalore",9.16E+11,12.84039061,77.65066814
Sheesh Kebab,"Kebab, Iranian, North Indian, Biryani, Rolls",500," Frazer Town, Bangalore",4.1,157.0,3.8,1201.0,https://www.zomato.com/bangalore/sheesh-kebab-frazer-town-bangalore,"55, MM Road, Opposite Post Office, Frazer Town, Bangalore",9.18E+11,13.000372,77.61672445
The Elephant Bowl Resto Cafe,"Continental, Italian, Fast Food, Desserts",500," HBR Layout, Bangalore",4.1,209.0,3.8,1351.0,https://www.zomato.com/bangalore/the-elephant-bowl-resto-cafe-hbr-layout-bangalore,"23, Ground Floor, 2nd Block, 80 Feet Road, HBR Layout, Bangalore",9.19E+11,13.025494,77.629682
Tapri By The Corner,"North Indian, Chinese",250," Koramangala 5th Block, Bangalore",4.1,175.0,4.1,1930.0,https://www.zomato.com/bangalore/tapri-by-the-corner-koramangala-5th-block,"70/1, 4th Cross, 17B Main Road, KHB Block, Koramangala 5th Block, Bangalore",9.17E+11,12.93551934,77.62123927
Sri Venkateshwara Sweetmeat Stall,"Mithai, Street Food, North Indian",400," Majestic, Bangalore",4.1,99.0,4.5,126.0,https://www.zomato.com/bangalore/sri-venkateshwara-sweetmeat-stall-majestic,"181, Balepet, Chikkapete, B.B.M.P, Majestic, Bangalore",9.18E+11,12.97297097,77.57480185
Brownie Heaven,"Desserts, Beverages",300," Indiranagar, Bangalore",4.1,183.0,4.0,1728.0,https://www.zomato.com/bangalore/brownie-heaven-indiranagar-bangalore,"6, 18th Main Road, 100 Feet Rd, HAL 2nd Stage, Indiranagar, Bangalore",9.20E+11,12.96252948,77.64187954
Mahalaxmi Tiffin Room,South Indian,100," Basavanagudi, Bangalore",4.1,230.0,4.0,0.0,https://www.zomato.com/bangalore/mahalaxmi-tiffin-room-basavanagudi,"85/1, DVG Road, Near National College, Basavanagudi, Bangalore",9.19E+11,12.94702163,77.57156342
Uttsav Donne Biryani Mane,"Biryani, South Indian",400," Nagarbhavi, Bangalore",4.1,138.0,4.2,1094.0,https://www.zomato.com/bangalore/uttsav-donne-biryani-mane-nagarbhavi,"326, Mallathahalli, Near AIT college, Nagarbhavi, Bangalore",9.20E+11,12.96444249,77.50479184
Sendhoor Coffee,"South Indian, Beverages",150," Indiranagar, Bangalore",4.1,166.0,4.1,2135.0,https://www.zomato.com/bangalore/sendhoor-coffee-indiranagar-bangalore,"58, Ground Floor, 7th Main, HAL 2nd Stage, Indiranagar, Banglore",9.18E+11,12.9705699,77.63340846
HVR Veg,South Indian,150," Seshadripuram, Bangalore",4.1,158.0,4.4,281.0,https://www.zomato.com/bangalore/hvr-veg-seshadripuram-bangalore,"162/1, 1st Main, Kumara Park West, Seshadripuram, Bangalore",9.19E+11,12.99385394,77.57749077
Bamboo Restaurant,"North Indian, Chinese, Biryani, Kerala, Ice Cream, Beverages",700," Kalyan Nagar, Bangalore",4.1,322.0,3.9,1113.0,https://www.zomato.com/bangalore/bamboo-restaurant-kalyan-nagar-bangalore,"408, 5th Main Road, 2nd Block, HRBR Layout, Kalyan Nagar, Bangalore",9.20E+11,13.02295029,77.63968147
Barjari Oota,South Indian,350," Basavanagudi, Bangalore",4.1,232.0,3.9,0.0,https://www.zomato.com/bangalore/barjari-oota-basavanagudi-bangalore,"18, Gandhi Bazar, Main Road, Roti Ghar, Basavanagudi, Bangalore",9.18E+11,12.94484381,77.57220279
Cafe Shuffle,"Cafe, Continental, Chinese, Fast Food, Beverages",550," Banashankari, Bangalore",4.1,292.0,3.6,169.0,https://www.zomato.com/bangalore/cafe-shuffle-banashankari-bangalore,"941, 3rd Floor, 21st Main, 22nd Cross, 2nd Stage, Opposite BDA Complex, Banashankari, Bangalore",9.20E+11,12.92589258,77.56476838
Sai Shakti,"North Indian, Chinese, Beverages",300," Malleshwaram, Bangalore",4.1,271.0,3.6,0.0,https://www.zomato.com/bangalore/sai-shakti-malleshwaram,"56, New Gandhi Sahithya Sangh, 4th Main, 8th Cross, Malleshwaram, Bangalore",9.20E+11,12.99915249,77.56807689
Chopstick World,"Chinese, North Indian, Thai, Mughlai, Fast Food, Seafood, Rolls",800," Basaveshwara Nagar, Bangalore",4.1,205.0,3.2,2.0,https://www.zomato.com/bangalore/chopstick-world-basaveshwara-nagar,"5, 1st Main, 2nd Block, 3rd Stage, Basaveshwara Nagar, Bangalore",9.18E+11,12.98573488,77.54242022
The Daily Bean,"Continental, Fast Food, Desserts",350," Hennur, Bangalore",4.1,153.0,3.1,0.0,https://www.zomato.com/bangalore/the-daily-bean-hennur-bangalore,"322, Annaiah Reddy Layout Road, Kothanur, Hennur, Bangalore",9.20E+11,13.06404861,77.64882345
Blue Tokai Coffee Roasters,"Tea, Healthy Food, American, Lebanese, Mediterranean, European, Middle Eastern, Juices",600," Koramangala 8th Block, Bangalore",4.1,279.0,4.3,406.0,https://www.zomato.com/bangalore/blue-tokai-coffee-roasters-koramangala-8th-block-bangalore,"583, 80 Feet Road, Opposite Bethany High School, Koramangala 8th Block, Banglore",9.19E+11,12.94051524,77.62007486
Biggies Burger,"Fast Food, Burger, Beverages",400," Church Street, Bangalore",4.1,304.0,3.9,1345.0,https://www.zomato.com/bangalore/biggies-burger-church-street-bangalore,"Shop 4, Old 19, Corporation 46/3, Kalpak Arcade, Church Street, Bangalore",9.19E+11,12.975455,77.60287721
Banashankari Donne Biriyani,"Biryani, Fast Food",300," Banashankari, Bangalore",4.1,214.0,4.1,1100.0,https://www.zomato.com/bangalore/banashankari-donne-biriyani-banashankari,"218/1,11th Main, 50 Feet Road, Hanumanthnagar, Banashankari, Bangalore",9.20E+11,12.94162917,77.55743153
Coffee Mechanics,"Cafe, Continental, Fast Food, Desserts, Bakery, Finger Food",700," HBR Layout, Bangalore",4.1,230.0,4.1,207.0,https://www.zomato.com/bangalore/coffee-mechanics-hbr-layout,"254, Fifth Block, First Stage, 3rd Main Road, HBR Layout, Bangalore",9.19E+11,13.03104526,77.62744591
Polamma's Mess,"Andhra, Biryani, South Indian",300," BTM, Bangalore",4.1,206.0,4.0,1044.0,https://www.zomato.com/bangalore/polammas-mess-btm,"67/2, Near Christ University, 2nd Cross, C.L. Layout, Adugodi, BTM, Bangalore",9.20E+11,12.93650357,77.60832176
Namma Kudla,"South Indian, Mangalorean, Mithai",100," Malleshwaram, Bangalore",4.1,111.0,4.1,449.0,https://www.zomato.com/bangalore/namma-kudla-malleshwaram,"97, 8th Cross, Temple Road, Malleshwaram, Bangalore",9.18E+11,12.99989504,77.57231981
Udupi Sri Krishna Bhavan,"South Indian, North Indian, Chinese",400," Basavanagudi, Bangalore",4.1,283.0,4.0,0.0,https://www.zomato.com/bangalore/udupi-sri-krishna-bhavan-basavanagudi,"115/116, 1st Floor, Gandhibazaar, Basavanagudi, Bangalore",9.18E+11,12.94579009,77.57054519
Amande Patisserie,"Bakery, Desserts, Fast Food, Beverages",700," Indiranagar, Bangalore",4.1,112.0,3.9,31.0,https://www.zomato.com/bangalore/amande-patisserie-1-indiranagar-bangalore,"777/D, 100 Feet Road, HAL 2nd Stage, Indiranagar, Bangalore",9.19E+11,12.96795,77.641228
Masala Chai,"Beverages, Fast Food, Tea",250," Whitefield, Bangalore",4.1,205.0,3.8,531.0,https://www.zomato.com/bangalore/masala-chai-1-whitefield,"G05 Brigade Metropolis, Gorudacharpalya, Whitefield, Bangalore",9.18E+11,12.99196043,77.70279385
Shri Ram Sweet Centre,"Mithai, Street Food",150," BTM, Bangalore",4.1,205.0,3.8,0.0,https://www.zomato.com/bangalore/shri-ram-sweet-centre-btm,"69/A, BHCS Layout, 2nd Stage, 2nd Cross, BTM, Bangalore",9.18E+11,12.91427462,77.60062516
Cool Corner,"Sandwich, South Indian, Street Food, Fast Food, Ice Cream, Desserts, Beverages",200," Basavanagudi, Bangalore",4.1,217.0,4.0,0.0,https://www.zomato.com/bangalore/cool-corner-basavanagudi,"1/10, Nisha Complex, Near National College, KR Road, Basavanagudi, Bangalore",9.18E+11,12.9474121,77.5738718
Burger Yard,"Cafe, Fast Food, Asian, Beverages",700," HSR, Bangalore",4.1,137.0,3.9,32.0,https://www.zomato.com/bangalore/burger-yard-1-hsr-bangalore,"28, MCH Society, Sector 4, HSR, Bangalore",9.19E+11,12.91356743,77.63820391
The Humble Pie,"Bakery, Desserts, Beverages",200," HSR, Bangalore",4.1,68.0,4.5,357.0,https://www.zomato.com/bangalore/the-humble-pie-hsr-bangalore,"Shop 1, Ground Floor, 1197 Falak Complex, 22nd Cross, Sector 2, HSR, Bangalore",9.18E+11,12.90867557,77.6504378
The Thick Shake Factory,"Beverages, Desserts, Ice Cream",350," Koramangala 1st Block, Bangalore",4.1,271.0,4.2,1114.0,https://www.zomato.com/bangalore/the-thick-shake-factory-koramangala-1st-block-bangalore,"11, 1st Main, Jakkasandra Extension, Koramangala 1st Block, Bangalore",9.20E+11,12.927274,77.637993
Chaska Bun,"Street Food, Beverages",250," Koramangala 5th Block, Bangalore",4.1,209.0,4.5,983.0,https://www.zomato.com/bangalore/chaska-bun-koramangala-5th-block,"34, 5th Cross, Koramangala 5th Block, Bangalore",9.18E+11,12.93600688,77.62140121
Sreeraj Lassi Bar,"Beverages, Desserts, Ice Cream, Fast Food",200," Jayanagar, Bangalore",4.1,220.0,4.1,1396.0,https://www.zomato.com/bangalore/sreeraj-lassi-bar-jayanagar,"196, 8th E Main, 27th Cross, 3rd Block, Suraj Plaza, Jayanagar, Bangalore",9.20E+11,12.93141445,77.58355994
Mama Mia!,"Desserts, Ice Cream, Beverages, Bakery",300," Seshadripuram, Bangalore",4.1,169.0,3.6,336.0,https://www.zomato.com/bangalore/mama-mia-seshadripuram-bangalore,"73/3, Railway Parallel Road, Kumara Park West, Seshadripuram, Bangalore",9.20E+11,12.99143184,77.57990576
Zayakedar,North Indian,250," Bellandur, Bangalore",4.1,267.0,3.9,571.0,https://www.zomato.com/bangalore/zayakedar-bellandur,"18/1C, Near Trinity Meadows, Bellandur Main Road, Bellandur, Bangalore",9.17E+11,12.92269632,77.6744315
Sai Foods,"North Indian, Chinese, Fast Food, Street Food, Beverages, Desserts",400," Brookefield, Bangalore",4.1,183.0,4.0,382.0,https://www.zomato.com/bangalore/sai-foods-brookefield,"39/4, JSR Pearl Complex, Arvind Avenue, Kundalahalli Gate, Near Bank Of Baroda, Brookefield, Bangalore",9.20E+11,12.95743926,77.71462072
Patiala Lassi,"Beverages, Street Food",200," Sanjay Nagar, Bangalore",4.1,138.0,4.2,360.0,https://www.zomato.com/bangalore/patiala-lassi-sanjay-nagar,"Geddalahalli, Near IBP Petrol Bunk, Sanjay Nagar, Bangalore",9.19E+11,13.02918699,77.57873598
Manasa Fishland,"Biryani, Chinese, Beverages, Seafood, Mangalorean",650," Kalyan Nagar, Bangalore",4.1,200.0,4.0,1852.0,https://www.zomato.com/bangalore/manasa-fishland-kalyan-nagar,"80 Feet Road, Subbianaipalya, Opposite Patil Public School, Kalyan Nagar, Bangalore",9.18E+11,13.01445619,77.64270633
Tempteys,"Beverages, Desserts",300," BTM, Bangalore",4.1,199.0,4.1,976.0,https://www.zomato.com/bangalore/tempteys-btm,"26, 7th Main, 15th Cross, Mico Layout, 2nd Stage, BTM, Bangalore",9.17E+11,12.91037232,77.60660782
Shree Thali,North Indian,200," Koramangala 5th Block, Bangalore",4.1,202.0,3.8,263.0,https://www.zomato.com/bangalore/shree-thali-koramangala-5th-block,"203, 17th E Main, Koramangala 5th Block, Bangalore",9.19E+11,12.93653297,77.61988275
Big Mummy,"Fast Food, Healthy Food",400," Indiranagar, Bangalore",4.1,217.0,3.7,1002.0,https://www.zomato.com/bangalore/big-mummy-indiranagar,"106, 18th Main, Off 100 Feet Road, Indiranagar, Bangalore",9.18E+11,12.9625053,77.64334403
Top Ace,"Rolls, Continental, Chinese, Fast Food, Beverages, Street Food",400," Koramangala 5th Block, Bangalore",4.1,288.0,3.9,1.0,https://www.zomato.com/bangalore/top-ace-koramangala-5th-block-bangalore,"74, 2nd Floor, Koramangala 5th Block, Bangalore",9.18E+11,12.93249901,77.61380989
Seafood Place,"Chinese, North Indian, Kerala, Mangalorean, Seafood",900," Indiranagar, Bangalore",4.1,279.0,3.6,1218.0,https://www.zomato.com/bangalore/seafood-place-indiranagar,"4, Subedar Garden, Sri Krishna Temple Road, Indiranagar, Bangalore",9.18E+11,12.97930204,77.64224768
Narmadha's Hyderabad Biriyani,"Biryani, Hyderabadi, Chinese, North Indian",400," BTM, Bangalore",4.1,249.0,3.6,624.0,https://www.zomato.com/bangalore/narmadhas-hyderabad-biriyani-btm,"1/1, 1st Floor, 100 Feet Road, 1st Stage, BTM, Bangalore",9.18E+11,12.9168455,77.6062501
Iceberg Organic Icecreams,"Desserts, Ice Cream",300," Indiranagar, Bangalore",4.1,155.0,3.9,601.0,https://www.zomato.com/bangalore/iceberg-organic-icecreams-indiranagar-bangalore,"241, Ground Floor, Shop 3 & 4, CMH Road, 2nd Stage, Indiranagar, Bangalore",9.18E+11,12.978209,77.63652
D'7 Feast Resto Cafe,"Burger, Pizza, Continental",600," New BEL Road, Bangalore",4.1,153.0,4.0,173.0,https://www.zomato.com/bangalore/d7-feast-resto-cafe-new-bel-road,"3, SR Street, 4th Cross, RMV 2nd Stage, Devsandra, New BEL Road, Bangalore",9.20E+11,13.0344629,77.56831661
Clean Slate Cafe,"Cafe, Continental, Italian, Beverages, Desserts",700," Malleshwaram, Bangalore",4.1,326.0,3.9,75.0,https://www.zomato.com/bangalore/clean-slate-cafe-malleshwaram,"Shop 2, 14th Cross, Malleshwaram, Bangalore",9.16E+11,13.00445288,77.57061224
Nammoora Thindi,South Indian,250," Nagarbhavi, Bangalore",4.1,321.0,4.1,2068.0,https://www.zomato.com/bangalore/nammoora-thindi-nagarbhavi,"94, N.G.E.F Layout, 2nd Stage, 80 Feet Road, Nagarbhavi, Bangalore",9.20E+11,12.96061122,77.5127684
UTSE Kitchen,"Tibetan, Desserts, Beverages",800," Commercial Street, Bangalore",4.1,248.0,3.9,646.0,https://www.zomato.com/bangalore/utse-kitchen-commercial-street-bangalore,"73, Kamaraj Road, Commercial Street, Bangalore",9.18E+11,12.9848603,77.6117513
Koel's Pizzeria,Pizza,500," Hennur, Bangalore",4.1,317.0,3.8,2184.0,https://www.zomato.com/bangalore/koels-pizzeria-hennur,"436/2, Locality &amp Area, Kylasanhalli Main Road, Kothanur City, Hennur, Bangalore",9.18E+11,13.0604289,77.65715372
Amintiri,"Cafe, Bakery, Fast Food, Desserts, Beverages, Salad",900," Church Street, Bangalore",4.0,52.0,3.6,0.0,https://www.zomato.com/bangalore/amintiri-church-street-bangalore,"10, Museum Road, Shanthala Nagar, Church Street, Bangalore",9.18E+11,12.97375084,77.60307904
Bucket Biryani,"Biryani, Kebab",1000," Frazer Town, Bangalore",4.0,313.0,4.4,1105.0,https://www.zomato.com/bangalore/bucket-biryani-frazer-town-bangalore,"61, MM Road, Near SBI ATM, Frazer Town, Bangalore",9.20E+11,13.00026615,77.61779431
Mallika Biryani Centre,Biryani,300," KR Puram, Bangalore",4.0,130.0,3.5,0.0,https://www.zomato.com/bangalore/mallika-biryani-centre-kr-puram-bangalore,"25/4, Kayalasanahalli, Hobli, KR Puram, Bangalore",9.20E+11,13.05594589,77.66352388
Cafe Reset By Luke Coutinho,"Healthy Food, Continental, Italian, Beverages",800," Koramangala 6th Block, Bangalore",4.0,57.0,3.2,13.0,https://www.zomato.com/bangalore/cafe-reset-by-luke-coutinho-1-koramangala-6th-block-bangalore,"Ground Floor, 6th Cross Road, Near Koramangala Club, Koramangala 6th Block, Bangalore",9.16E+11,12.93796184,77.62411397
Amrith Ice Cream,Ice Cream,100," Malleshwaram, Bangalore",4.0,99.0,3.8,0.0,https://www.zomato.com/bangalore/amrith-ice-cream-malleshwaram,"51, 5th Main, 11th Cross Road, Malleshwaram, Bangalore",9.18E+11,12.99943017,77.56545402
Copper Kitchen,"North Indian, Chinese, Chettinad, Andhra, Lebanese",800," HSR, Bangalore",4.0,141.0,3.8,483.0,https://www.zomato.com/bangalore/copper-kitchen-hsr-bangalore,"L 147, Lakshmi Chambers, 5th Main Road, 6th Sector, HSR, Bangalore",9.19E+11,12.91496579,77.63219073
Gopaljee Cafe,"Street Food, North Indian",400," Bellandur, Bangalore",4.0,53.0,4.1,923.0,https://www.zomato.com/bangalore/gopaljee-cafe-bellandur-bangalore,"17/1, Gra Towers, Ground Floor, Bellandur Gate, Amblipura Main Road, Bellandur, Bangalore",9.19E+11,12.92161,77.671918
Hotel Moonlight,"Chinese, North Indian",500," Malleshwaram, Bangalore",4.0,189.0,3.9,0.0,https://www.zomato.com/bangalore/hotel-moonlight-1-malleshwaram,"49/1, 5th Cross, 4th Main, Malleshwaram, Bangalore",9.18E+11,12.99666347,77.568787
Food Kasoot,"Chinese, Rolls, Beverages",500," Marathahalli, Bangalore",4.0,128.0,3.0,27.0,https://www.zomato.com/bangalore/food-kasoot-marathahalli-bangalore,"Shop 1 - 2, 352, Ground Floor, Rear House, Aswath Nagar, Marathahalli, Bangalore",9.19E+11,12.95701712,77.70348184
Raffaele's Ristorante Pizzeria,"Pizza, Italian, Beverages",1000," Koramangala 6th Block, Bangalore",4.0,105.0,4.3,1169.0,https://www.zomato.com/bangalore/raffaeles-ristorante-pizzeria-koramangala-6th-block-bangalore,"Builders NGV Club, National Games Village, Koramangala 6th Block, Bangalore",9.18E+11,12.94184,77.625555
Naati Cafe,"South Indian, Biryani",400," Koramangala 7th Block, Bangalore",4.0,57.0,4.1,370.0,https://www.zomato.com/bangalore/naati-cafe-1-koramangala-7th-block-bangalore,"56, Blue Moon 2-K, 1st Main, Koramangala 7th Block, Bangalore",9.20E+11,12.936198,77.615398
Hungry Bear,"Fast Food, Desserts, Beverages",300," Kumaraswamy Layout, Bangalore",4.0,122.0,3.9,507.0,https://www.zomato.com/bangalore/hungry-bear-kumaraswamy-layout-bangalore,"Near Dayanand Sagar College, 5 Cross Road, Teachers Colony, Kumaraswamy Layout, Bangalore",9.18E+11,12.91123704,77.56698489
Pizzology Pizza,"Fast Food, Beverages, Pizza",450," Electronic City, Bangalore",4.0,112.0,3.6,1043.0,https://www.zomato.com/bangalore/pizzology-pizza-electronic-city-bangalore,"17, Smondo 3, New Town Road, Electronic City, Bangalore",9.20E+11,12.82144096,77.66004715
Candy Cloud Factory,"Desserts, Beverages, Ice Cream, Fast Food",400," Koramangala 5th Block, Bangalore",4.0,220.0,4.2,281.0,https://www.zomato.com/bangalore/candy-cloud-factory-koramangala-5th-block-bangalore,"88, Jyoti Nivas, College Road, Koramangala 5th Block, Bangalore",9.19E+11,12.9336878,77.61557076
The Caffeine Baar,"Cafe, Desserts, Fast Food, Beverages",700," Jayanagar, Bangalore",4.0,95.0,3.9,87.0,https://www.zomato.com/bangalore/the-caffeine-baar-jayanagar-bangalore,"1424/81, Second Floor, 9th Block, Jayanagar, Bangalore",9.20E+11,12.91636512,77.59279646
Cafe Rome,"Cafe, Fast Food, Desserts",400," Sahakara Nagar, Bangalore",4.0,61.0,3.9,51.0,https://www.zomato.com/bangalore/cafe-rome-sahakara-nagar-bangalore,"216/3, Prashanth Paradise, 10th Cross, 14th Main, F Block, Park Road, Sahakara Nagar, Bangalore",9.17E+11,13.060616,77.589577
Kawaii,"Ice Cream, Beverages",300," Indiranagar, Bangalore",4.0,218.0,4.1,300.0,https://www.zomato.com/bangalore/kawaii-indiranagar-bangalore,"463, Shop 1, 9th Main, HAL Second Stage, Indiranagar, Bangalore",9.19E+11,12.97213,77.64225
Dark Mandala Art Cafe,"Cafe, Italian, Mexican, Beverages, Desserts, Fast Food",600," JP Nagar, Bangalore",4.0,194.0,3.9,0.0,https://www.zomato.com/bangalore/dark-mandala-art-cafe-1-jp-nagar-bangalore,"Shop 313, SS Plaza, Outer Ring Road, Phase 5, JP Nagar, Bangalore",9.17E+11,12.90623172,77.59334497
SLV Reddy Military Hotel,"Biryani, South Indian",400," JP Nagar, Bangalore",4.0,60.0,4.0,733.0,https://www.zomato.com/bangalore/slv-reddy-military-hotel-jp-nagar-bangalore,"13, Pavamana Nagar, Gottigere, Royal Lake Front, Phase 1 & 2, Jambusavari Dinne Main Road, JP Nagar, Bangalore",9.19E+11,12.8688773,77.58214172
Dash Of Delite,"North Indian, Chinese",600," Electronic City, Bangalore",4.0,146.0,3.8,39.0,https://www.zomato.com/bangalore/dash-of-delite-electronic-city-bangalore,"2nd Floor, Sai Arcade, 9th Cross Road, Ananth Nagar, Electronic City, Bangalore",9.20E+11,12.8355509,77.693379
Mast Marathi,"Maharashtrian, Street Food, Desserts, Beverages",300," HSR, Bangalore",4.0,126.0,3.8,2071.0,https://www.zomato.com/bangalore/mast-marathi-hsr-bangalore,"Site 1, 18th Main, Sector 3, HSR Layout, Near Sri Shirdi Saibaba Mandir, HSR, Bangalore",9.18E+11,12.91148812,77.64435915
Gabru Bistro & Cafe,"North Indian, Mughlai, Chinese, Kebab, Rolls, Sandwich, Biryani, Beverages",700," New BEL Road, Bangalore",4.0,4.0,3.9,369.0,https://www.zomato.com/bangalore/gabru-bistro-cafe-new-bel-road-bangalore,"66, Ground Floor, AGS Layout, Near Mayuri Circle, New BEL Road, Bangalore",9.19E+11,13.03394822,77.56790161
Mystique Palate Kundalahalli,"Chinese, Tibetan, Fast Food, Italian",550," Brookefield, Bangalore",4.0,50.0,4.1,274.0,https://www.zomato.com/bangalore/mystique-palate-kundalahalli-brookefield-bangalore,"21/22, NPR Enclave, Kundalahalli, 60 Feet Road, Opposite Ushakiran Appartment, Brookefield, Bangalore",9.18E+11,12.95900695,77.71406349
Indian Paratha Company,"North Indian, Rolls",600," International Airport, Bangalore",4.1,5.0,3.9,17.0,https://www.zomato.com/indianparathcompany,"1/2, Guttahalli, Kasaba Hobli, Devanahalli, International Airport, Bangalore",9.20E+11,13.26234611,77.7163323
Rajanna Military Hotel,"Biryani, South Indian",300," Vijay Nagar, Bangalore",4.0,95.0,3.7,0.0,https://www.zomato.com/bangalore/rajanna-military-hotel-1-vijay-nagar-bangalore,"12, Syndicate Bank Colony, 2nd Main Road, Prashant Nagar, Vijay Nagar, Bangalore",9.20E+11,12.98188892,77.53327422
Burnout Cafe,"Cafe, Fast Food, Continental, Beverages",700," Infantry Road, Bangalore",4.0,220.0,3.6,69.0,https://www.zomato.com/bangalore/burnout-cafe-infantry-road-bangalore,"39/40, 3rd & 4th Floor, MS Towers, Lady Curzon Road, Near Infantry Road, Bangalore",9.18E+11,12.97968331,77.6037335
Palmgrove,"North Indian, South Indian, Chinese, Juices",700," Ballal Residency, Residency Road, Bangalore",4.0,276.0,3.8,0.0,https://www.zomato.com/bangalore/palmgrove-residency-road,"74/4, 3 Cross, Residency, Residency Road, Bangalore",9.18E+11,12.97149942,77.60844581
Nourich,"Healthy Food, Chinese, North Indian, Fast Food, Beverages, Mughlai, Continental, Salad",800," JP Nagar, Bangalore",4.0,108.0,3.9,1164.0,https://www.zomato.com/bangalore/nourich-jp-nagar-bangalore,"67, Ground Floor, 3rd E Main Road, 3rd Phase, JP Nagar, Bangalore",9.20E+11,12.90634611,77.5968248
Creamvilla,"Cafe, Desserts, Ice Cream",600," Sarjapur Road, Bangalore",4.0,139.0,3.9,1002.0,https://www.zomato.com/bangalore/creamvilla-sarjapur-road-bangalore,"32/1, SK Arcade, Sarjapur Main Road, Doddakannelli, Sarjapur Road, Bangalore",9.19E+11,12.907486,77.694646
Gowdara Mudde Mane,"South Indian, North Indian, Biryani, Beverages",450," Kanakapura Road, Bangalore",4.0,158.0,3.9,67.0,https://www.zomato.com/bangalore/gowdara-mudde-mane-kanakapura-road,"24, 1st Main, 1st Cross, Manjunath Nagar, Raghuvanahalli, Kanakapura Road, Bangalore",9.20E+11,12.88287054,77.5464556
New Hilal Restaurant,"North Indian, Chinese, Mughlai",500," Shivajinagar, Bangalore",4.0,151.0,4.3,403.0,https://www.zomato.com/bangalore/new-hilal-restaurant-shivajinagar,"11, HKP Road, Shivajinagar, Bangalore",9.18E+11,12.98572475,77.60538105
SLAY Coffee Bar,"Coffee, Beverages",350," HSR, Bangalore",4.0,77.0,4.4,622.0,https://www.zomato.com/bangalore/slay-coffee-bar-hsr-bangalore,"17/N, 18th Cross Road, Sector 3, HSR Layout, HSR, Bangalore",9.20E+11,12.91179194,77.64380403
Scoopy Doo,"Ice Cream, Desserts, Beverages",150," Electronic City, Bangalore",4.0,63.0,4.1,553.0,https://www.zomato.com/bangalore/scoopy-doo-electronic-city-bangalore,"2335/185, Opposite Ajmera Avenue Sho.Com, Neeladri Nagar, 1st Phase, Anekal, Electronic City, Bangalore",9.20E+11,12.84145661,77.64775928
Ferment,"Continental, North Indian, Chinese, Pasta",1000," Banashankari, Bangalore",4.0,288.0,3.7,21.0,https://www.zomato.com/bangalore/ferment-banashankari-bangalore,"309, Outer Ring Road, Kathriguppe 4th Phase, Gururaja Layout, Banashankari, Bangalore",9.20E+11,12.92218066,77.55835421
Baba Chatkora,"North Indian, BBQ, Desserts, Beverages",800," JP Nagar, Bangalore",4.0,311.0,3.8,655.0,https://www.zomato.com/bangalore/baba-chatkora-jp-nagar-bangalore,"1304, Ground Floor, 9th Cross, 20th Main, JP Nagar, Bangalore",9.20E+11,12.91043311,77.58810997
Mudde Madappa Mess,South Indian,150," Majestic, Bangalore",4.0,124.0,3.9,0.0,https://www.zomato.com/bangalore/mudde-madappa-mess-majestic,"3/4, Sagar Complex, Near Tata Consultancy, 5th Main Road, Gandhi Nagar, Majestic, Bangalore",9.20E+11,12.97896782,77.5778636
Friendly Neighbourhood Pizza-Man,"Pizza, Fast Food, Desserts, Beverages",400," JP Nagar, Bangalore",4.0,73.0,4.0,112.0,https://www.zomato.com/bangalore/friendly-neighbourhood-pizza-man-jp-nagar-bangalore,"9, Chandru Complex, Opposite RBI Layout, 18th Main Road, 7th Phase, JP Nagar, Bangalore",9.19E+11,12.89189401,77.5790887
The Lassi Park,"Beverages, Ice Cream",300," Jayanagar, Bangalore",4.0,202.0,4.1,395.0,https://www.zomato.com/bangalore/the-lassi-park-jayanagar-bangalore,"22nd Cross, New Diagonal Road, Opposite N MKRV Womens College, 3rd Block, Jayanagar, Bangalore",9.18E+11,12.93304962,77.58231774
Holy Smoke,"Arabian, Mughlai, Chinese, Fast Food",350," BTM, Bangalore",4.0,96.0,4.2,1296.0,https://www.zomato.com/bangalore/holy-smoke-btm-bangalore,"16, 16th Main, BTM Layout, 2nd Stage, 1st Phase, BTM, Bangalore",9.20E+11,12.91026284,77.60979865
Dose Manjanna,South Indian,100," Jayanagar, Bangalore",4.0,91.0,3.2,0.0,https://www.zomato.com/bangalore/dose-manjanna-jayanagar-bangalore,"50, 12th Main, 4th T Block, KV Layout, Near Sub Register Office, Jayanagar, Bengaluru",9.20E+11,12.92883424,77.58650266
Bekal Restaurant,"Kerala, Mangalorean, Seafood, Beverages, Chinese",700," Jeevan Bhima Nagar, Bangalore",4.0,299.0,3.4,1268.0,https://www.zomato.com/bangalore/bekal-restaurant-jeevan-bhima-nagar-bangalore,"38, 1st Floor, Opposite Indian Oil Petrol Pump, 10th Main, Jeevan Bhima Nagar, Bangalore",9.18E+11,12.96787215,77.65430119
Bengali Fun Foods,"Bengali, North Indian",600," BTM, Bangalore",4.0,267.0,4.0,1400.0,https://www.zomato.com/bangalore/bengali-fun-foods-btm-bangalore,"66, 35th Main, 100 Feet Ring Road, Near Silk Board, BTM 2nd Stage, BTM, Bangalore",9.19E+11,12.91605532,77.61877667
K.G.N Kabbab Corner,"North Indian, Chinese",550," Kalyan Nagar, Bangalore",4.0,120.0,3.6,1.0,https://www.zomato.com/bangalore/k-g-n-kabbab-corner-kalyan-nagar-bangalore,"96/3, HRBR Layout, 2nd Block, 4th Cross, Mariappa Circle, Kalyan Nagar, Bangalore",9.18E+11,13.02258052,77.63757762
Lot Like Crepes & Cafe,"Cafe, Continental, Desserts, Beverages, Fast Food",600," Whitefield, Bangalore",4.0,65.0,3.9,160.0,https://www.zomato.com/bangalore/lot-like-crepes-cafe-whitefield-bangalore,"5 Avalon, 1st Main Road, Whitefield Main Road, Whitefield, Bangalore",9.19E+11,12.98069941,77.75115615
Swadeshi's,"North Indian, Chinese, South Indian",800," Kanakapura Road, Bangalore",4.0,211.0,3.9,1.0,https://www.zomato.com/bangalore/swadeshis-kanakapura-road,"15/4, Thalaghattapura, Near KSITC, Kanakapura Road, Bangalore",9.17E+11,12.86716621,77.5353764
Sri Venkateshwara Sweet Meat Stall,"Mithai, Street Food, Desserts, Beverages",300," Jayanagar, Bangalore",4.0,220.0,3.9,16.0,https://www.zomato.com/bangalore/sri-venkateshwara-sweet-meat-stall-jayanagar,"301A, 9th Main, 4th Block, Jayanagar, Bangalore",9.18E+11,12.92459983,77.58383319
The Mangalorean,"Mangalorean, Seafood, North Indian",550," Kammanahalli, Bangalore",4.0,232.0,3.9,1676.0,https://www.zomato.com/bangalore/the-mangalorean-kammanahalli-bangalore,"21, Ground Floor, Praise the Lord Mansion, Nehru Road, Kammanahalli Circle, Kammanahalli, Bangalore",9.17E+11,13.0145911,77.63517603
Smokey Tribe Restaurant,"North Eastern, Fast Food",700," Koramangala 7th Block, Bangalore",4.0,210.0,4.2,2035.0,https://www.zomato.com/bangalore/smokey-tribe-restaurant-koramangala-7th-block,"61, 1st Main Road, Koramangala 7th Block, Bangalore",9.18E+11,12.93652873,77.61495017
Kaara By The Lake,"Cafe, Italian, Beverages, Desserts",750," Ulsoor, Bangalore",4.0,155.0,4.3,0.0,https://www.zomato.com/bangalore/kaara-by-the-lake-ulsoor-bangalore,"119, Annaswamy Mudaliar Road, Opposite Ulsoor Lake, Ulsoor, Bangalore",9.20E+11,12.98658169,77.61950187
Cafe Natural,"Cafe, South Indian, Fast Food, Beverages, Desserts",400," Sahakara Nagar, Bangalore",4.0,132.0,4.2,126.0,https://www.zomato.com/bangalore/cafe-natural-sahakara-nagar,"2279, Ground Floor, Block C, CQAL Layout, Opposite Kodigehalli Railway Station, Sahakara Nagar, Bangalore",9.20E+11,13.06296775,77.57645409
Eat Repeat,South Indian,150," Basavanagudi, Bangalore",4.0,152.0,4.3,1014.0,https://www.zomato.com/bangalore/eat-repeat-basavanagudi-bangalore,"13, 4th Cross Road, NR Colony, Basavanagudi, Bangalore",9.20E+11,12.93889908,77.56742645
Cafe Arabica,"Cafe, Bakery, Fast Food, Beverages, Arabian, Desserts, Burger, Sandwich",700," Frazer Town, Bangalore",4.0,188.0,3.6,1.0,https://www.zomato.com/bangalore/cafe-arabica-frazer-town,"56, Mosque Road, Frazer Town, Bangalore",9.18E+11,12.99952295,77.61609849
Trapeze,"Fast Food, Continental, American, Italian, Desserts, Beverages, Panini, Pizza",650," Hennur, Bangalore",4.0,132.0,4.0,125.0,https://www.zomato.com/bangalore/trapeze-hennur-bangalore,"117/1, Horamavu Agra Main Road, Hennur, Bangalore",9.20E+11,13.03779392,77.6511915
Kodava Kuisine,South Indian,300," Sahakara Nagar, Bangalore",4.0,42.0,4.0,534.0,https://www.zomato.com/bangalore/kodava-kuisine-sahakara-nagar-bangalore,"82, Ground Floor, Rajiv Gandhi Nagar, Kodigehalli, By A T Arayanapura, NTI LAyout, First Phase, Sahakara Nagar, Bangalore",9.19E+11,13.056046,77.576661
Shree Venkateshwara North Karnataka Hotel,South Indian,250," Basavanagudi, Bangalore",4.0,86.0,4.0,0.0,https://www.zomato.com/bangalore/shree-venkateshwara-north-karnataka-hotel-basavanagudi,"31, Police Station Road, Near Gandhi Bazaar, Basavanagudi, Bangalore",9.18E+11,12.94238431,77.57159024
Lan Thai,Thai,800," New BEL Road, Bangalore",4.0,102.0,3.6,40.0,https://www.zomato.com/bangalore/lan-thai-new-bel-road,"1/B, 3rd Main Road, KGE Layout, RMV 2nd Stage, New BEL Road, Bangalore",9.20E+11,13.02932091,77.57152855
The Belgian Waffle Co.,"Desserts, Beverages",250," HSR, Bangalore",4.0,129.0,4.3,1857.0,https://www.zomato.com/bangalore/the-belgian-waffle-co-hsr-bangalore,"2617, 27th Main, Sector 1, Opposite CPWD Complex, HSR, Bangalore",9.20E+11,12.91371253,77.65171554
Holige Mane,South Indian,100," Malleshwaram, Bangalore",4.0,79.0,3.9,26.0,https://www.zomato.com/bangalore/holige-mane-1-malleshwaram,"34, 3rd Cross, Sampigne Road, Malleshwaram, Bangalore",9.18E+11,12.99559585,77.57151783
Helloo Delhi,"North Indian, Biryani",1000," Koramangala 4th Block, Bangalore",4.0,247.0,4.0,1987.0,https://www.zomato.com/bangalore/helloo-delhi-koramangala-4th-block,"770, 80 Feet Road, Koramangala 4th Block, Bangalore",9.18E+11,12.93182423,77.63215117
Shalimar,"North Indian, Chinese, Seafood",1000," Indiranagar, Bangalore",4.0,187.0,4.0,1146.0,https://www.zomato.com/bangalore/shalimar-indiranagar,"322/3, 3rd Floor, 2nd Stage, CMH Road, Indiranagar, Bangalore",9.18E+11,12.97829936,77.63730939
Eat Retreat,"North Indian, Chinese",500," Sarjapur Road, Bangalore",4.0,46.0,4.0,494.0,https://www.zomato.com/bangalore/eat-retreat-sarjapur-road-bangalore,"Survey 23, Khata 13/23, Third Floor, Ambalipura Village, Harlur Main Road, Varthur, Hobli, Sarjapur Road, Bangalore",9.20E+11,12.914046,77.666393
Madouk Cafe,"Healthy Food, Fast Food, Biryani, Beverages, Desserts, Lebanese",400," Brookefield, Bangalore",4.0,103.0,3.8,70.0,https://www.zomato.com/bangalore/madouk-cafe-brookefield,"346, B Block, 4th Main Road, AECS Layout, Brookefield, Bangalore",9.20E+11,12.96613756,77.71449264
The Golden Scoop,"Desserts, Beverages, Fast Food, Ice Cream",300," Malleshwaram, Bangalore",4.0,44.0,3.4,5.0,https://www.zomato.com/bangalore/the-golden-scoop-malleshwaram-bangalore,"18/3, 18th Cross, 1st Main, Ranganathapuram, Malleshwaram, Bangalore",9.18E+11,13.00833149,77.57147491
Cafe Kiara,"Mexican, Italian, Beverages",550," Hesaraghatta, Bangalore",4.0,169.0,3.6,213.0,https://www.zomato.com/bangalore/cafe-kiara-hesaraghatta-bangalore,"58/59, Sapthagiri Complex, Near Acharya College, Thammenahalli Village, Hesaraghatta, Bangalore",9.18E+11,13.08370514,77.48505145
Momomia,"Momos, Rolls",350," Domlur, Bangalore",4.0,69.0,3.9,977.0,https://www.zomato.com/bangalore/momomia-domlur-bangalore,"7/17, 2nd Main, 14th Cross Road, Domlur, Bangalore",9.18E+11,12.95810777,77.64151745
Rajhans,"North Indian, Chinese, Fast Food, Beverages",300," St. Marks Road, Bangalore",4.0,115.0,3.9,480.0,https://www.zomato.com/bangalore/rajhans-st-marks-road-bangalore,"14, Old 11, St. Marks Road, Bangalore",9.20E+11,12.97095935,77.60077737
#L-81 Cafe,"North Indian, Chinese, Continental, Fast Food, Beverages, Sandwich",500," HSR, Bangalore",4.0,208.0,3.9,2.0,https://www.zomato.com/bangalore/l-81-cafe-1-hsr-bangalore,"L-81, 15th Cross, Sector 6, HSR, Bangalore",9.20E+11,12.91390861,77.63106555
The Urban Gully,"North Indian, Chinese, Beverages, Fast Food, Street Food",500," HSR, Bangalore",4.0,81.0,3.9,243.0,https://www.zomato.com/bangalore/the-urban-gully-1-hsr-bangalore,"807, Garden Layout, Sector 2, 19th Main, HSR Layout, HSR, Bangalore",9.20E+11,12.90768241,77.64454097
Writer's Cafe,"Cafe, Fast Food, Beverages",600," Kalyan Nagar, Bangalore",4.0,259.0,3.9,70.0,https://www.zomato.com/bangalore/writers-cafe-kalyan-nagar-bangalore,"509, 4th Cross Road, HRBR Layout, 2nd Block, Kalyan Nagar, Bangalore",9.20E+11,13.021792,77.640584
Kothanur Kitchen 2.O,South Indian,400," Hennur, Bangalore",4.0,223.0,4.1,248.0,https://www.zomato.com/bangalore/kothanur-kitchen-2-o-hennur-bangalore,"78/2, Opposite Horamavoo Agara, Near Lake, Hennur, Bangalore",9.20E+11,13.033258,77.657148
The Punjabi Bites,"North Indian, Chinese",300," Old Airport Road, Bangalore",4.0,99.0,3.4,3.0,https://www.zomato.com/bangalore/the-punjabi-bites-airport-road-bangalore,"2, Murugesh Palya, Opposite Omega Healthcare, Old Airport Road, Bangalore",9.20E+11,12.9545097,77.65287828
AJ-125,"North Indian, Chinese, Beverages",700," Marathahalli, Bangalore",4.0,87.0,4.0,268.0,https://www.zomato.com/bangalore/aj-125-marathahalli-bangalore,"187, 1st Floor, 1st Cross, Bhoganhalli Main Road, Panathur, Marathahalli, Bangalore",9.20E+11,12.9361964,77.70386875
99 Pancakes,"Desserts, Italian, Beverages",300," Church Street, Bangalore",4.0,127.0,4.4,932.0,https://www.zomato.com/bangalore/99-pancakes-2-church-street-bangalore,"16/3, Phoenix Arcade, Ground Floor, Shanthala Nagar, Ashok Nagar, Church Street, Bangalore",9.17E+11,12.97473459,77.60590643
Hotel Kandhasamy,"Seafood, Biryani, South Indian, Chettinad",900," Kalyan Nagar, Bangalore",4.0,313.0,3.7,720.0,https://www.zomato.com/bangalore/hotel-kandhasamy-kalyan-nagar-bangalore,"436, 5th Main Road, 2nd Block, HBR Layout, Kalyan Nagar, Bangalore",9.19E+11,13.024228,77.639899
Cafe Cassia & Deli,"Continental, Thai, Beverages, Coffee",1000," Ulsoor, Bangalore",4.0,136.0,3.8,0.0,https://www.zomato.com/bangalore/cafe-cassia-deli-ulsoor-bangalore,"Ground Floor, Gangadhar Chetty Road, Opposite RBNAMS Ground, Ulsoor, Bangalore",9.18E+11,12.98121329,77.61292309
Saapad Raman,"South Indian, Biryani, Andhra",400," Kammanahalli, Bangalore",4.0,103.0,4.1,1242.0,https://www.zomato.com/bangalore/saapad-raman-kammanahalli-bangalore,"Shop 5, Nehru Road, Banaswadi Post, Near Kulappa Circle, Kammanahalli, Bangalore",9.20E+11,13.01417134,77.64083315
Namdhari's Salad Bar,"Salad, Fast Food",400," Indiranagar, Bangalore",4.0,102.0,4.2,0.0,https://www.zomato.com/bangalore/namdharis-salad-bar-indiranagar,"789, Near Sony Centre, 12th A Main, HAL 2nd Stage, Off 100 Feet Road, Indiranagar, Bangalore",9.18E+11,12.97020463,77.64072418
Oregano Soul Food,Cafe,700," Whitefield, Bangalore",4.0,195.0,3.8,318.0,https://www.zomato.com/bangalore/oregano-soul-food-whitefield,"61, Seetharampalya-Hoodi Road, Whitefield, Bangalore",9.18E+11,12.98051479,77.71204647
Divina - Eden Park Restaurants,"Bakery, Desserts",200," Eden Park Restaurants, Bangalore",4.0,163.0,3.9,35.0,https://www.zomato.com/bangalore/divina-eden-park-restaurants-jayanagar-bangalore,"722/22, 4 Block, 10 A Main Road, Near Telephone Exchange, 36 Cross Road, Jayanagar, Bangalore",9.18E+11,12.92283455,77.58478303
Mizo Kitchen,"North Eastern, Chinese",400," Koramangala 5th Block, Bangalore",4.0,90.0,4.2,259.0,https://www.zomato.com/bangalore/mizo-kitchen-koramangala-5th-block-bangalore,"348, K.H.B Block, 17th-B, Main Road, Koramangala 5th Block, Bangalore",9.18E+11,12.93306433,77.62310207
Kamat's Palate Korner,"North Indian, Chinese, Seafood, Fast Food, Kebab, Mughlai, Beverages",700," Richmond Road, Bangalore",4.0,144.0,4.0,300.0,https://www.zomato.com/bangalore/kamats-palate-korner-richmond-road,"650 C, Rajaram Mohan Roy Road, Opposite Kanteevara Stadium, Richmond Road, Bangalore",9.19E+11,12.96794468,77.59140909
Chill-Um Cafe,"Cafe, Fast Food, Chinese, Desserts, Beverages",600," Koramangala 6th Block, Bangalore",4.0,194.0,3.9,66.0,https://www.zomato.com/bangalore/chill-um-cafe-1-koramangala-6th-block,"636, Shri YK Reddy Pavillion, 17th Main Road, Koramangala 6th Block, Bangalore",9.19E+11,12.93634541,77.62553886
Sree Renukambha Bidadi Thatte Idli,South Indian,100," Mysore Road, Bangalore",4.0,90.0,4.0,0.0,https://www.zomato.com/bangalore/sree-renukambha-bidadi-thatte-idli-mysore-road,"Near Police Station, Bidadi, Mysore Road, Bangalore",9.20E+11,12.79671277,77.38357041
Karnatic,"South Indian, Kerala, Andhra, Biryani, Chettinad, Konkan, Mangalorean",1000," JP Nagar, Bangalore",4.0,160.0,3.9,87.0,https://www.zomato.com/bangalore/karnatic-jp-nagar-bangalore,"55, 4th Floor, Goenka Chambers, 19th Main Road, JP Nagar, Bangalore",9.18E+11,12.90647389,77.58948661
The Big Bellyz,"Fast Food, Mexican, Street Food, Beverages, Rolls, North Indian",500," Malleshwaram, Bangalore",4.0,131.0,4.1,698.0,https://www.zomato.com/bangalore/the-big-bellyz-1-malleshwaram-bangalore,"42/95, Near BJP Office, 1st Temple Street, 11th Cross, Malleshwaram, Bengaluru",9.20E+11,13.00264733,77.57214915
Namma Kudla,"Mangalorean, North Indian, Chinese, Biryani",450," JP Nagar, Bangalore",4.0,211.0,3.5,466.0,https://www.zomato.com/bangalore/namma-kudla-jp-nagar,"18, 2nd Phase, 5th A Cross, Marenahalli, Near RV Dental College, JP Nagar, Bangalore",9.19E+11,12.91267724,77.58615296
Rajasthani Charbhuja Restaurant,"North Indian, Chinese, Rajasthani",350," Electronic City, Bangalore",4.0,233.0,4.0,0.0,https://www.zomato.com/bangalore/rajasthani-charbhuja-restaurant-electronic-city,"183, 1st Floor, 12th Cross, Neeladri Nagar, Phase 1, Electronic City, Bangalore",9.20E+11,12.84126113,77.64762048
Jai Jinendra,"Mithai, Street Food",200," Koramangala 6th Block, Bangalore",4.0,106.0,4.0,1172.0,https://www.zomato.com/bangalore/jai-jinendra-koramangala-6th-block,"635, 100 Feet Road, Koramangala 6th Block, Bangalore",9.18E+11,12.93621601,77.62531087
Tanang  Restaurant,"Naga, Chinese",350," Hennur, Bangalore",4.0,82.0,3.9,0.0,https://www.zomato.com/bangalore/tanang-restaurant-hennur-bangalore,"361, Geddalahalli, Kothanur, Near Kristu Jayanthi College, Hennur, Bangalore",9.18E+11,13.05490565,77.64542643
Kurtosshhh,"Desserts, Fast Food, Beverages",500," Inorbit Mall, Whitefield, Bangalore",4.0,87.0,4.1,266.0,https://www.zomato.com/bangalore/kurtosshhh-whitefield-bangalore,"10A, 1st Floor, Inorbit Mall, 75 EPIP Industrial Area, Whitefield, Bangalore",9.20E+11,12.979225,77.728571
Ginger Greens,"Andhra, Chinese, North Indian, Seafood, Biryani",750," Kalyan Nagar, Bangalore",4.0,318.0,3.9,14.0,https://www.zomato.com/bangalore/ginger-greens-kalyan-nagar,"122/4, C. Shankar Reddy Building, Kalyan Nagar, Bangalore",9.20E+11,13.02582416,77.64053743
Step Right Up,"Street Food, Fast Food, Chinese, Beverages, Burger, Pizza, Pasta, Sandwich",300," Vasanth Nagar, Bangalore",4.0,227.0,3.7,831.0,https://www.zomato.com/bangalore/step-right-up-vasanth-nagar,"46, 8th Main Road, Vasanth Nagar, Bangalore",9.18E+11,12.99259814,77.5915499
Chubalas Curry & Rice,"Naga, Goan, Seafood",400," Kammanahalli, Bangalore",4.0,226.0,3.9,1019.0,https://www.zomato.com/bangalore/chubalas-curry-rice-kammanahalli-bangalore,"4, 7 Main Road, 80 Feet Road, Subbannapalya Extension, Kalyan Nagar, Bangalore",9.18E+11,13.0126628,77.64270231
Big Chicken,"Burger, Sandwich, Rolls, Wraps, Beverages",300," Kammanahalli, Bangalore",4.0,157.0,4.2,2020.0,https://www.zomato.com/bangalore/big-chicken-kammanahalli,"84, Jayalakshmi, Kammanahalli Main Road, Kammanahalli, Bangalore",9.18E+11,13.01976181,77.63687253
Delicious Momos,"Chinese, Momos",450," Kammanahalli, Bangalore",4.0,152.0,4.1,958.0,https://www.zomato.com/bangalore/delicious-momos-kammanahalli,"1783, 3rd Main Road, Saint Thomas Town, Kammanahalli, Bangalore",9.20E+11,13.01541331,77.63368975
Anju's Cafe,"Fast Food, North Indian, Street Food, Biryani, Desserts, Beverages",400," JP Nagar, Bangalore",4.0,159.0,4.0,0.0,https://www.zomato.com/bangalore/anjus-cafe-jp-nagar,"36/2, 8th Cross, 23rd Main, 2nd Phase, JP Nagar, Bangalore",9.20E+11,12.91140011,77.58704748
You Me And Tea,"North Indian, Chinese, Fast Food, Healthy Food, Beverages",600," HSR, Bangalore",4.0,149.0,3.9,290.0,https://www.zomato.com/bangalore/you-me-and-tea-1-hsr-bangalore,"1673, 27th Main Road, Sector 2, HSR, Bangalore",9.20E+11,12.9088893,77.65177622
Little Black Choux,"Bakery, Desserts, Italian",850," Indiranagar, Bangalore",4.0,46.0,3.9,22.0,https://www.zomato.com/bangalore/little-black-choux-indiranagar-bangalore,"971, 1st Floor, 12th A Main, 5th Cross, HAL 2nd Stage, Indiranagar, Bangalore",9.20E+11,12.96967011,77.63871755
Waffle Stories,"Desserts, Beverages, Ice Cream",300," Jayanagar, Bangalore",4.0,281.0,4.0,317.0,https://www.zomato.com/bangalore/waffle-stories-jayanagar,"321, Ground Floor, 1st A Main Road, 7th Block, Jayanagar, Bangalore",9.20E+11,12.92962406,77.57685877
The Deli - The Den Bengaluru,"Bakery, Desserts, North Indian, Fast Food",600," The Den, Whitefield, Bangalore",4.0,228.0,3.7,97.0,https://www.zomato.com/bangalore/the-deli-the-den-bengaluru-itpl-main-road-whitefield,"KIADB Export Promotion Industrial Area, ITPL Main Road, Whitefield, Bangalore",9.18E+11,12.98778885,77.73352325
Qube Cafe,"Cafe, North Indian, Street Food",650," Koramangala 4th Block, Bangalore",4.0,232.0,3.5,60.0,https://www.zomato.com/bangalore/qube-cafe-koramangala-4th-block-bangalore,"643, Indiqube Octagon, 80 Feet Road, Koramangala 4th Block, Bangalore",9.20E+11,12.9339832,77.62998328
Bunty's Belly,"Cafe, North Indian",600," Kalyan Nagar, Bangalore",4.0,106.0,4.2,660.0,https://www.zomato.com/bangalore/buntys-belly-kalyan-nagar-bangalore,"412, 1st Floor, 5th Main Road, HRBR Layout, 2nd Block, Kalyan Nagar, Bangalore",9.18E+11,13.02259685,77.63978977
Bhavani Vada Pav,Street Food,150," Yeshwantpur, Bangalore",4.0,116.0,3.8,392.0,https://www.zomato.com/bangalore/bhavani-vada-pav-yeshwantpur,"26/1, Triveni Road, Mathikere Extension, Mathikere, Yeshwantpur, Bangalore",9.19E+11,13.03003692,77.56209623
#54 Gully Kitchen,"North Indian, Asian, Fast Food, Street Food, Biryani",500," Malleshwaram, Bangalore",4.0,126.0,3.9,14.0,https://www.zomato.com/bangalore/54-gully-kitchen-malleshwaram-bangalore,"54, Railway Parallel Road, Kumara Park, Malleshwaram, Bangalore",9.19E+11,12.989609,77.578307
Naachiyar's,Chettinad,600," Ulsoor, Bangalore",4.0,181.0,4.0,952.0,https://www.zomato.com/bangalore/naachiyars-1-ulsoor,"36/1, Ground Floor, Haudin Road, Ulsoor, Bangalore",9.20E+11,12.97728231,77.61933759
Desi Masala,"North Indian, Chinese, Desserts, Beverages",700," Banaswadi, Bangalore",4.0,105.0,3.9,76.0,https://www.zomato.com/bangalore/desi-masala-banaswadi-bangalore,"Oyo Town House, 10M & 261, Old PID, 1st Block, Hennur Road, Manikya Jewellers, HRBR Layout, Banaswadi, Bangalore",9.20E+11,13.01772869,77.65209675
Tandoor And Spice,"North Indian, Chinese, Hyderabadi",600," JP Nagar, Bangalore",4.0,182.0,4.2,2206.0,https://www.zomato.com/bangalore/tandoor-and-spice-jp-nagar,"21, 1st Floor, Next to Oracle, Kalyani Magnum Technum Park, 7th Phase, JP Nagar, Bangalore",9.17E+11,12.89963702,77.59481817
Slo' Food Co.2,"North Indian, Chinese, Fast Food, Desserts",1000," Radisson Bangalore City Centre, Ulsoor, Bangalore",4.0,118.0,3.9,1.0,https://www.zomato.com/bangalore/slo-food-co-2-ulsoor-bangalore,"Radisson Bangalore, City Centre 2, Gangadhar Chetty Road, Ulsoor, Bangalore",9.16E+11,12.97493519,77.61901572
Huliyappa's Donne Biryani,"Biryani, South Indian",350," RT Nagar, Bangalore",4.0,281.0,4.1,585.0,https://www.zomato.com/bangalore/huliyappas-donne-biryani-rt-nagar,"33, 10th Cross, Ganga Nagar, RT Nagar, Bangalore",9.18E+11,13.02676752,77.59083007
ZOROY Luxury Chocolate,"Desserts, Ice Cream, Beverages",300," Church Street, Bangalore",4.0,98.0,3.9,60.0,https://www.zomato.com/bangalore/zoroy-luxury-chocolate-church-street,"44, Ace Court, Near K C Das, Church Street, Bangalore",9.18E+11,12.97556935,77.60219894
Kalpavriksha Upahara,"South Indian, North Indian, Chinese, Street Food, Beverages",600," Jayanagar, Bangalore",4.0,146.0,4.2,449.0,https://www.zomato.com/bangalore/kalpavriksha-upahara-jayanagar,"1036, 26th Main, 4th Block, Jayanagar, Bangalore",9.17E+11,12.92136271,77.59346668
Donne Biriyani Mane,"Biryani, South Indian",300," Basaveshwara Nagar, Bangalore",4.0,218.0,3.9,68.0,https://www.zomato.com/bangalore/donne-biriyani-mane-basaveshwara-nagar,"326, Veerabadra Complex, 4th Block, 3rd Stage, 80 Feet Road, Near Airtel Office, Basaveshwara Nagar, Bangalore",9.20E+11,12.9916994,77.53851458
Momo Shop,"Momos, Chinese, Rolls",300," RT Nagar, Bangalore",4.0,121.0,4.2,918.0,https://www.zomato.com/bangalore/momo-shop-rt-nagar,"98-98-4, 1st Main, KHM Block, Ganganagar, RT Nagar, Bangalore",9.20E+11,13.02299602,77.59220034
Chai Point,"Tea, Fast Food, Street Food, Beverages, Desserts",400," Kempegowda International Airport, Bangalore",4.0,241.0,3.7,0.0,https://www.zomato.com/bangalore/chai-point-international-airport,"KIAL, Devanahalli, Bangalore, International Airport, Bangalore",9.19E+11,13.20003995,77.71042541
Amrutha Sweets,"Mithai, Street Food, North Indian",300," HSR, Bangalore",4.0,149.0,3.9,9.0,https://www.zomato.com/bangalore/amrutha-sweets-hsr,"1190/1, 22nd Cross, 14th Main, 3rd Sector, Club Road, HSR, Bangalore",9.19E+11,12.90929845,77.64110439
The C@fe,"North Indian, Chinese, Fast Food, Beverages, Desserts",600," Kanakapura Road, Bangalore",4.0,168.0,4.0,1.0,https://www.zomato.com/bangalore/the-c@fe-kanakapura-road-bangalore,"Unit 100, Ground Floor, Samvit, Udaypura, Near Udaypura Bus Stop, Kanakapura Road, Bangalore",9.17E+11,12.81920223,77.51384664
Modified Tea,Tea,250," New BEL Road, Bangalore",4.0,145.0,3.9,123.0,https://www.zomato.com/bangalore/modified-tea-new-bel-road-bangalore,"20, Food Street, Ramaiah University Campus, Mathikere Near New BEL Road, Bangalore",9.19E+11,13.029118,77.567203
Cottage Loaf,"Bakery, Fast Food",250," Hennur, Bangalore",4.0,61.0,4.1,0.0,https://www.zomato.com/bangalore/cottage-loaf-hennur,"2,Kanka Sree Layout,Kothanur Post, Hennur, Bangalore",9.20E+11,13.05524565,77.65360314
The Organic Loaf,"Sandwich, Fast Food, Pizza, Bakery, Desserts, Beverages",450," Kanakapura Road, Bangalore",4.0,94.0,4.1,0.0,https://www.zomato.com/bangalore/the-organic-loaf-kanakapura-road-bangalore,"Gate 1, Near Udayapura Post Office, Kanakapura Road, Banglore",9.19E+11,12.82186007,77.51460303
Anastasia,"Continental, Chinese, Fast Food, Beverages, Mangalorean, Seafood, Italian, Mexican",950," HSR, Bangalore",4.0,55.0,3.1,23.0,https://www.zomato.com/bangalore/anastasia-hsr-bangalore,"16, 5th Floor, 17th Cross, 9th Main, 7th Sector, HSR, Bangalore",9.19E+11,12.91228606,77.63576712
Cold Smith Ice Creams,"Ice Cream, Desserts, Beverages",450," Yelahanka, Bangalore",4.0,132.0,4.1,1504.0,https://www.zomato.com/bangalore/cold-smith-ice-creams-yelahanka,"Shop 107, Prestige Plaza, Chikkabommasandra, Mother Dairy Road, Yelahanka, Bangalore",9.20E+11,13.09845729,77.5732626
Magic Oven,"Fast Food, Rolls, Chinese, Beverages",400," Electronic City, Bangalore",4.0,161.0,4.0,368.0,https://www.zomato.com/bangalore/magic-oven-electronic-city,"121/1, Abhinandana Complex, Manipal County Road, Singasandra, Electronic City, Bangalore",9.18E+11,12.87408862,77.64634274
Priyadarshini Restaurant,"South Indian, Desserts, Beverages, Ice Cream",500," Majestic, Bangalore",4.0,112.0,4.5,338.0,https://www.zomato.com/bangalore/priyadarshini-restaurant-majestic,"262, Subedar Chatram Road, Majestic, Bangalore",9.18E+11,12.97718462,77.57581808
Zucca Pizzeria & Shakes,"Pizza, Italian, Fast Food, Beverages",700," Kengeri, Bangalore",4.0,219.0,3.5,1534.0,https://www.zomato.com/bangalore/zucca-pizzeria-shakes-kengeri-bangalore,"175, 1st Main, 1st Stage Extension, Near Hoysala Circle, Kengeri Satellite Town, Kengeri, Bangalore",9.19E+11,12.9233744,77.48472087
Tibet Kitchen,"Tibetan, Chinese",250," KR Puram, Bangalore",4.0,123.0,3.7,913.0,https://www.zomato.com/bangalore/tibet-kitchen-kr-puram,"Garden City College, P Colony, Bhattarahalli, KR Puram, Bangalore. ",9.18E+11,13.02397107,77.70637125
Cream Artisan,"Ice Cream, Desserts, Beverages, Fast Food",600," BTM, Bangalore",4.0,78.0,3.7,245.0,https://www.zomato.com/bangalore/cream-artisan-btm-bangalore,"69, Mahadeshwara Nagar, 7th Main Road, Stage 2, BTM, Bangalore",9.19E+11,12.910543,77.60648
DVG Benne Dosa,"South Indian, Street Food",200," Nagawara, Bangalore",4.0,129.0,3.8,2088.0,https://www.zomato.com/bangalore/dvg-benne-dosa-nagawara-bangalore,"81/2, Chanakya Layout, Nagawara, Bangalore",9.18E+11,13.039683,77.620847
Juice Junction,"Juices, Beverages, Sandwich, Fast Food",250," St. Marks Road, Bangalore",4.0,122.0,4.4,592.0,https://www.zomato.com/bangalore/juice-junction-st-marks-road,"22, Opposite State Bank of India, St. Marks Road, Bangalore",9.18E+11,12.97212673,77.60101911
SLV Refreshment,South Indian,100," Banashankari, Bangalore",4.0,106.0,3.6,0.0,https://www.zomato.com/bangalore/slv-refreshment-banashankari,"130, 3rd Main, 4th Cross, Hanumanthanagar, Banashankari, Bangalore",9.19E+11,12.94340543,77.56418735
Amdo's Corner Tibetan Foods,"Tibetan, Chinese",400," Richmond Road, Bangalore",4.0,63.0,4.0,12.0,https://www.zomato.com/bangalore/amdos-corner-tibetan-foods-richmond-road,"Shop 13/1, Austin Town, Opposite BDA Complex, Richmond Road, Bangalore",9.19E+11,12.95838909,77.61492938
Manjushree Fish Palace,"North Indian, Chinese, Seafood",400," Vijay Nagar, Bangalore",4.0,86.0,3.9,46.0,https://www.zomato.com/bangalore/manjushree-fish-palace-vijay-nagar,"45, 1st Main, 80 Feet Road, Opposite Balaji Indian Oil Petrol Pump, Vijay Nagar, Bangalore",9.19E+11,12.95905629,77.5240957
Sola Aana Odia,"Odia, North Indian",100," BTM, Bangalore",4.0,45.0,3.7,645.0,https://www.zomato.com/bangalore/sola-aana-odia-btm-bangalore,"689, 29th Main Road, 1st Phase, 2nd Stage, BTM, Bangalore",9.18E+11,12.91517559,77.6153183
Rigan Restobar,Continental,800," Kempegowda International Airport, Bangalore",4.0,124.0,4.1,0.0,https://www.zomato.com/bangalore/rigan-restobar-international-airport-bangalore,"Survey 1/1, NH 7 Highway, Guttahalli Village, Kasaba Hobli, Taluk Devanhalli, International Airport, Bangalore",9.17E+11,13.26244434,77.71668702
Mad Over Donuts,"Desserts, Beverages",200," Jayanagar, Bangalore",4.0,121.0,4.2,678.0,https://www.zomato.com/bangalore/mad-over-donuts-jayanagar-bangalore,"#524/10, 10th Main Road, 33rd Cross, 4th Block, Jayanagar, Bangalore",9.18E+11,12.92635171,77.58476157
Varanda,"North Indian, Continental, Chinese, Italian",700," Sarjapur Road, Bangalore",4.0,127.0,3.5,48.0,https://www.zomato.com/bangalore/varanda-sarjapur-road-bangalore,"65/1 C, Kaikondrahalli, Carmelaram Post, Sarjapur Road, Bangalore",9.19E+11,12.91300996,77.6803049
Zero Kelvin,"Desserts, Beverages",300," Brookefield, Bangalore",4.0,161.0,4.2,1314.0,https://www.zomato.com/bangalore/zero-kelvin-brookefield-bangalore,"Shop 1, House 58, First Floor, Drisham Enclave, Munnekollala, Kundanhalli Gate, Brookefield, Bangalore",9.18E+11,12.95144713,77.71752421
Vitamin Palace,"Cafe, Beverages, Fast Food, Juices",400," Koramangala 7th Block, Bangalore",4.0,180.0,4.0,0.0,https://www.zomato.com/bangalore/vitamin-palace-koramangala-7th-block,"21, Hosur Main Road, Chikku Lakshmaiah Layout, Adugodi, Koramangala 7th Block, Bangalore",9.18E+11,12.93375152,77.61097848
White Elefan Coffee and Snack Bar,"Coffee, Fast Food, Chinese, Beverages",550," Koramangala 2nd Block, Bangalore",4.0,104.0,3.6,210.0,https://www.zomato.com/bangalore/white-elefan-coffee-and-snack-bar-koramangala-2nd-block-bangalore,"Shop 293, 4th Avenue, Teachers Colony, Jakkasandra, Koramangala 2nd Block, Bangalore",9.20E+11,12.9261382,77.6221091
Eat N Drink,"Fast Food, Sandwich, Burger, Wraps, Ice Cream, Juices, Beverages",350," Kumaraswamy Layout, Bangalore",4.0,176.0,4.2,112.0,https://www.zomato.com/bangalore/eat-n-drink-kumaraswamy-layout,"11, 3rd Cross, Near Syndicate Bank, Govinayakanahalli, Kumaraswamy Layout, Bangalore",9.19E+11,12.9097233,77.564818
Cafe Longing,"Cafe, Fast Food, Beverages",350," BTM, Bangalore",4.0,78.0,3.6,696.0,https://www.zomato.com/bangalore/cafe-longing-2-btm-bangalore,"119, 6th Cross, 29th Main Road, 2nd Stage, BTM, Bangalore",9.20E+11,12.90993376,77.61450257
Ritomi's Lov,"North Indian, Sandwich, Chinese, Beverages, Salad",500," Bellandur, Bangalore",4.0,62.0,4.1,577.0,https://www.zomato.com/bangalore/ritomis-lov-bellandur,"33/1, 2nd Main Road, Near Outer Ring Road, Bellandur, Bangalore",9.18E+11,12.92721048,77.67782215
Wats Ur Scoop?,"Ice Cream, Desserts, Beverages",350," Indiranagar, Bangalore",4.0,65.0,3.7,207.0,https://www.zomato.com/bangalore/wats-ur-scoop-indiranagar-bangalore,"172, 2nd Cross Road, Indiranagar Double Road, Near Indiranagar, Bangalore",9.18E+11,12.96445,77.6387484
Ice Stone,"Ice Cream, Beverages, Desserts",250," HSR, Bangalore",4.0,85.0,4.2,231.0,https://www.zomato.com/bangalore/ice-stone-hsr-bangalore,"202, 28th Main, 7th Cross, Sector 1, HSR, Bangalore",9.19E+11,12.91969185,77.65219666
Dalchini,"North Indian, Sandwich, Beverages, Desserts",700," Bellandur, Bangalore",4.0,286.0,3.6,892.0,https://www.zomato.com/bangalore/dalchini-bellandur,"55/2, Devarabisanahalli, Outer Ring Road, Bellandur, Bangalore",9.18E+11,12.93163731,77.68597104
Bokeh Resto Cafe,"Chinese, North Indian, Fast Food, Salad, Italian, Beverages, Kebab",600," Sanjay Nagar, Bangalore",4.0,71.0,3.4,48.0,https://www.zomato.com/bangalore/bokeh-resto-cafe-sanjay-nagar-bangalore,"82, 80 Feet Road, RMV 2nd Stage, Sanjay Nagar, Bangalore",9.19E+11,13.02828682,77.57326165
Zabi,Biryani,300," HBR Layout, Bangalore",4.0,151.0,4.0,1968.0,https://www.zomato.com/bangalore/zabi-hbr-layout,"208/E, HS Complex, 1st Stage, 2nd Block, 80 Feet Road, HBR Layout, Bangalore",9.18E+11,13.02227999,77.6292564
Schezwan Restaurant,"Chinese, Fast Food, North Indian, Biryani, Rolls, Beverages",500," BTM, Bangalore",4.0,200.0,3.4,1752.0,https://www.zomato.com/bangalore/schezwan-restaurant-btm-bangalore,"15, 16th Main Road, Teverekere road, BTM 1st Stage, 1st Phase, BTM, Bangalore",9.18E+11,12.918821,77.611048
Biting Junction,"Chinese, North Indian, Fast Food",350," Whitefield, Bangalore",4.0,127.0,3.6,1461.0,https://www.zomato.com/bangalore/biting-junction-whitefield-bangalore,"Apple City, SH 35, Seegehalli, Opposite HDFC Bank, Whitefield, Bangalore",9.18E+11,13.00829784,77.75884464
Ghar Ka Khana,"North Indian, Biryani",500," Yelahanka, Bangalore",4.0,147.0,3.7,1190.0,https://www.zomato.com/bangalore/ghar-ka-khana-yelahanka-bangalore,"D6-23, KHB SFS 407, Upanagara, Yelahanka, Bangalore",9.20E+11,13.102706,77.573684
Dheekshi Snackies,"Fast Food, Chinese, North Indian, Biryani",400," BTM, Bangalore",4.0,152.0,3.8,642.0,https://www.zomato.com/bangalore/dheekshi-snackies-btm-bangalore,"15, 16th Main Road, Teverekere road, BTM 1st Stage, 1st Phase, BTM, Bangalore",9.18E+11,12.918821,77.611048
Delightz,"Desserts, Fast Food",300," Koramangala 6th Block, Bangalore",4.0,41.0,3.9,43.0,https://www.zomato.com/bangalore/delightz-koramangala-6th-block,"110, Near Allen Solly Showroom, 1st Cross, Koramangala 6th Block, Bangalore",9.20E+11,12.93774103,77.61929702
Delhi Eatz,"North Indian, Chinese, Beverages",400," Bannerghatta Road, Bangalore",4.0,69.0,3.6,768.0,https://www.zomato.com/bangalore/delhi-eatz-bannerghatta-road-bangalore,"135 & 136, 2, 1st Cross, Pai Layout, Hulimavu Village, BTM Layout, Bannerghatta Road, Bangalore",9.20E+11,12.88135107,77.59667728
The Juice Shop - Juicery And Kitchen,"Beverages, Fast Food, Bakery",300," Kalyan Nagar, Bangalore",4.0,41.0,3.9,48.0,https://www.zomato.com/bangalore/the-juice-shop-juicery-and-kitchen-kalyan-nagar-bangalore,"403, 5th Main, 2nd Block, HRBR Layout, Kalyan Nagar, Bangalore",9.18E+11,13.022277,77.639483
ChatBox,Street Food,200," Marathahalli, Bangalore",4.0,54.0,3.9,221.0,https://www.zomato.com/bangalore/chatbox-marathahalli-bangalore,"39/4, C 14, Ferns City Road, Doddanekundi, Marathahalli, Bangalore",9.19E+11,12.97900081,77.69570746
Boxoo Cafe,"North Indian, Street Food, Momos, Chinese, Beverages",500," Electronic City, Bangalore",4.0,51.0,3.9,48.0,https://www.zomato.com/bangalore/boxoo-cafe-electronic-city-bangalore,"Neotown Road, Phase 1, Electronic City, Bangalore",9.20E+11,12.819925,77.662066
Chowmein,"North Indian, Chinese, Thai, Momos",600," Seshadripuram, Bangalore",4.0,261.0,3.8,640.0,https://www.zomato.com/bangalore/chowmein-seshadripuram,"53, Railway Parallel Road, Empire Towers,Kumarapark West, Seshadripuram, Bangalore",9.18E+11,12.9888382,77.5784805
Ice Cream Lab,"Desserts, Ice Cream, Beverages",300," Koramangala 5th Block, Bangalore",4.0,99.0,4.3,170.0,https://www.zomato.com/bangalore/ice-cream-lab-1-koramangala-5th-block-bangalore,"49/7, 1st Floor, Near Jyothi Nivas College, Industrial Layout, Koramangala 5th Block, Bangalore",9.19E+11,12.93432043,77.61626948
Dessert Rose,Desserts,500," Banashankari, Bangalore",4.0,66.0,3.9,91.0,https://www.zomato.com/bangalore/dessert-rose-banashankari-bangalore,"1053, 30th Main, 14th C Cross, 2nd Stage, Banashankari, Bangalore",9.19E+11,12.92882509,77.56263368
Punjab Bistro Express,North Indian,500," Nagawara, Bangalore",4.0,180.0,3.8,368.0,https://www.zomato.com/bangalore/punjab-bistro-express-nagawara-bangalore,"G9, Outer Ring Road, Beside HDFC Bank, Nagawara, Bangalore",9.18E+11,13.04521394,77.62097206
The Good Grain,"Healthy Food, North Indian, South Indian",550," Residency Road, Bangalore",4.0,60.0,3.5,371.0,https://www.zomato.com/bangalore/the-good-grain-residency-road-bangalore,"2A-3A-4A, Cears Plaaza, Residency Road, Bangalore",9.18E+11,12.96558604,77.59802978
Red Dragon Restaurant,Chinese,600," RT Nagar, Bangalore",4.0,152.0,4.1,1483.0,https://www.zomato.com/bangalore/red-dragon-restaurant-rt-nagar,"199, 9th Main, 9th Cross, HMT Layout, RT Nagar, Bangalore",9.20E+11,13.0246296,77.59498347
Aroma Spice,"Andhra, Chinese, North Indian, Seafood",800," Kalyan Nagar, Bangalore",4.0,214.0,3.9,195.0,https://www.zomato.com/bangalore/aroma-spice-kalyan-nagar-bangalore,"227, 7th Main, HRBR 2nd Block, 80 Feet Road, Kalyan Nagar, Bangalore",9.17E+11,13.01848033,77.64307044
Baskin Robbins,"Ice Cream, Desserts, Beverages",400," Ascendas Park Square, Whitefield, Bangalore",4.0,165.0,4.4,710.0,https://www.zomato.com/bangalore/baskin-robbins-1-whitefield-bangalore,"4th Floor, Park Square Mall, ITPB Main Road, Whitefield, Bangalore",9.19E+11,12.98683684,77.7365109
Petoo,"North Indian, Fast Food, Street Food",600," Gopalan Signature Mall, Old Madras Road, Bangalore",4.0,240.0,3.4,119.0,https://www.zomato.com/bangalore/petoo-old-madras-road,"Food Court, Gopalan Signature Mall, Swamy Vivekananda Road Rahat Bagh, Old Madras Road, Bangalore",9.20E+11,12.99277455,77.6614875
Cremee Fresh Cakes n' Snacks,Bakery,350," Kaggadasapura, Bangalore",4.0,174.0,3.9,31.0,https://www.zomato.com/bangalore/cremee-fresh-cakes-n-snacks-kaggadasapura-bangalore,"4, 12th Main, Maleshpalya, Kaggadasapura, Bangalore",9.20E+11,12.97295235,77.67655313
Kathi Junction,"Rolls, North Indian, Chinese, Biryani",400," Jalahalli, Bangalore",4.0,78.0,3.9,1407.0,https://www.zomato.com/bangalore/kathi-junction-jalahalli-bangalore,"Shop 1 & 2, Ground Floor, Ward 11, Singapura Village, Opposite Shriram Sameeksha Apartment, Jalahalli, Bangalore",9.18E+11,13.07132512,77.5351702
Tasty Bites,"North Indian, Chinese",200," JP Nagar, Bangalore",4.0,209.0,4.1,321.0,https://www.zomato.com/bangalore/tasty-bites-jp-nagar-bangalore,"8, 23rd Main 2nd Phase, Marenahalli, JP Nagar, Bangalore",9.20E+11,12.91492233,77.58652613
Shiva's Kabab Corner,"North Indian, Kebab",400," Sahakara Nagar, Bangalore",4.0,216.0,4.1,765.0,https://www.zomato.com/bangalore/shivas-kabab-corner-sahakara-nagar,"39, Behind Big Market, Sahakarnagar Main Road, Sahakara Nagar, Bangalore",9.18E+11,13.06301885,77.59212557
Cafe OTW - On The Way,"American, Continental, Cafe, Italian, Sandwich",500," Koramangala 3rd Block, Bangalore",4.0,293.0,4.0,140.0,https://www.zomato.com/bangalore/cafe-otw-on-the-way-koramangala-3rd-block-bangalore,"11, 7th Cross, Near Raheja Residency, Koramangala 3rd Block, Bangalore",9.18E+11,12.92962471,77.63082683
Raja Gobi Centre,Fast Food,150," JP Nagar, Bangalore",3.9,103.0,3.8,0.0,https://www.zomato.com/bangalore/raja-gobi-centre-jp-nagar-bangalore,"17th C Cross Rd, 5th Phase, JP Nagar, Bangalore",9.20E+11,12.90559412,77.59154353
Morsel Treats,Italian,1050," Indiranagar, Bangalore",3.9,57.0,3.6,2.0,https://www.zomato.com/bangalore/morsel-treats-indiranagar-bangalore,"949, 3rd Floor, 12th Main Road, HAL 2nd Stage, Indiranagar, Bangalore",9.20E+11,12.97027392,77.63906062
Drunken Daddy,"North Indian, Continental, Fast Food, Oriental, South Indian, Beverages",600," Koramangala 5th Block, Bangalore",3.9,68.0,4.1,0.0,https://www.zomato.com/bangalore/drunken-daddy-koramangala-5th-block-bangalore,"46, Ground Floor, 4th B Cross, Koramangala Industrial Layout, Koramangala 5th Block, Bangalore",9.19E+11,12.93446308,77.61613819
Rumi,"Awadhi, Mughlai, North Indian, Kebab",900," Indiranagar, Bangalore",3.9,34.0,4.0,90.0,https://www.zomato.com/bangalore/rumi-indiranagar-bangalore,"598/1, 3rd Floor, 12th Main Road, HAL 2nd Stage, Indiranagar, Bangalore",9.17E+11,12.9704766,77.6434171
Lifetree,"North Indian, Continental, Beverages, Desserts",900," Richmond Road, Bangalore",3.9,92.0,3.9,23.0,https://www.zomato.com/bangalore/lifetree-richmond-road-bangalore,"1, Melange Astris, Langford Garden, Richmond Road, Bangalore",9.17E+11,12.96493781,77.59858366
Rayan Kitchen,"North Indian, Continental, Italian, Pizza, Burger, Sandwich, Beverages",500," Bommanahalli, Bangalore",3.9,94.0,4.2,124.0,https://www.zomato.com/bangalore/rayan-kitchen-bommanahalli-bangalore,"15, Flat 02, BMC Arcade, Viswapriya Layout, Opposite Janajeeva Green Wood Apartment, Begur Village, Bommanahalli, Bangalore",9.18E+11,12.8818451,77.6256849
Lemon Leaf,"North Indian, Chinese, Mughlai, South Indian",700," Whitefield, Bangalore",3.9,63.0,4.1,1377.0,https://www.zomato.com/bangalore/lemon-leaf-whitefield-bangalore,"1st Floor, S B R Horizon Mall, Hoskote Road, Whitefield, Bangalore",9.20E+11,13.0186564,77.76237711
Uncle Peter's Pancakes & Cafe,"Desserts, Tea, Beverages",300," Domlur, Bangalore",3.9,36.0,3.9,25.0,https://www.zomato.com/bangalore/uncle-peters-pancakes-cafe-domlur-bangalore,"2595, Ground Floor, 2nd Cross, 18th Main, 2nd Stage, Kodihalli, Domlur, Bangalore",9.19E+11,12.9617414,77.64342215
Smoky - The Sheesha Lounge,Cafe,500," Koramangala 5th Block, Bangalore",3.9,118.0,4.0,0.0,https://www.zomato.com/bangalore/smoky-the-sheesha-lounge-koramangala-5th-block-bangalore,"28, Second Floor, Fourth B Cross, Koramangala 5th Block, Bangalore",9.19E+11,12.9332032,77.61393361
Grand Desi Paratha,"North Indian, Fast Food, Chinese, Desserts, Beverages",400," Rajarajeshwari Nagar, Bangalore",3.9,69.0,3.6,200.0,https://www.zomato.com/bangalore/grand-desi-paratha-1-rajarajeshwari-nagar-bangalore,"1222, 5th Stage, BEML Layout, Kempegowda Road, Sachidananda Nagar, Rajarajeshwari Nagar, Bangalore",9.17E+11,12.9145952,77.51863103
Namma  Adda - A Multicuisine Restaurant,"North Indian, Chinese, Continental, South Indian, Beverages",700," HSR, Bangalore",3.9,29.0,3.9,69.0,https://www.zomato.com/bangalore/namma-adda-a-multicuisine-restaurant-hsr-bangalore,"1212, SBM Fortune Building, HSR Club Road, Sector 3, HSR, Bangalore",9.19E+11,12.90931479,77.63863642
Hosatodaku,"Andhra, Mangalorean, Biryani",600," Jayanagar, Bangalore",3.9,29.0,3.4,8.0,https://www.zomato.com/bangalore/hosatodaku-jayanagar-bangalore,"382, 71-4, 11th Main Road, 3rd Block, Jayanagar, Bangalore",9.19E+11,12.93104618,77.58611843
Khamma Ghani Sa,"Rajasthani, North Indian",650," Koramangala 5th Block, Bangalore",3.9,71.0,3.7,174.0,https://www.zomato.com/bangalore/khamma-ghani-sa-koramangala-5th-block-bangalore,"11, Ground Floor, 4th C Cross, Industrial layout, Koramangala 5th Block, Bangalore",9.20E+11,12.9351691,77.6153586
Have More,"North Indian, Chinese, Beverages",700," Kammanahalli, Bangalore",3.9,218.0,3.9,1463.0,https://www.zomato.com/bangalore/have-more-kammanahalli,"306, Ground Floor, HRBR Layout, Hennur Main Road, Kammanhalli, Bangalore",9.19E+11,13.02402399,77.63133947
Chaiffee Cafe ,"Tea, Fast Food, Beverages, Street Food, Desserts",200," JP Nagar, Bangalore",3.9,46.0,4.0,189.0,https://www.zomato.com/bangalore/chaiffee-cafe-jp-nagar-bangalore,"5, Gangadhar Nagar, 1st Phase, Outer Ring Road, JP Nagar, Bangalore",9.20E+11,12.90650526,77.5745846
Chickstar,"Burger, Fast Food, American",400," Frazer Town, Bangalore",3.9,11.0,3.6,36.0,https://www.zomato.com/bangalore/chickstar-frazer-town-bangalore,"43, Coles Road, Near Kotak Mahindra Bank, Frazer Town, Bangalore",9.20E+11,12.99534817,77.61433208
Chai Nagri,"Cafe, Fast Food, Burger, Beverages, Street Food",400," Koramangala 1st Block, Bangalore",3.9,55.0,3.9,64.0,https://www.zomato.com/bangalore/chai-nagri-koramangala-1st-block-bangalore,"Shop 1022, 80 Feet Road, S.T. Bed, Cauvery Colony, Koramangala 1st Block, Bangalore",9.16E+11,12.9307,77.63298
Belly Cravings,"Fast Food, Beverages",250," BTM, Bangalore",3.9,119.0,4.1,174.0,https://www.zomato.com/bangalore/belly-cravings-btm-bangalore,"270/1, 6th Main, Mico Layout, 2nd Stage, BTM, Bangalore",9.18E+11,12.9159,77.605559
Baf's Cafe,"Chinese, North Indian, Fast Food, Momos, Desserts, Juices, Beverages",500," Basaveshwara Nagar, Bangalore",3.9,45.0,3.9,66.0,https://www.zomato.com/bangalore/bafs-cafe-basaveshwara-nagar-bangalore,"75, Basaveshwara Nagar, Bangalore",9.18E+11,12.99831095,77.54075155
Esperance,"Desserts, Pizza, Continental, Beverages",700," Jayanagar, Bangalore",3.9,290.0,3.7,1.0,https://www.zomato.com/bangalore/esperance-jayanagar-bangalore,"1, Old 740, New 20, First Floor, 10 Main Road, 4 Block, Jayanagar, Bangalore",9.19E+11,12.92556972,77.58550722
SGS Non Veg Gundu Pulav,South Indian,200," KR Puram, Bangalore",3.9,38.0,3.8,119.0,https://www.zomato.com/bangalore/sgs-non-veg-gundu-pulav-kr-puram-bangalore,"33, Ground Floor, DK Complex, Devasandra Main Road, KR Puram, Bangalore",9.19E+11,13.006786,77.700307
Gramin Litti Adda | GLA,"Bihari, North Indian, Desserts, Beverages",550," Varthur Main Road, Whitefield, Bangalore",3.9,34.0,3.4,79.0,https://www.zomato.com/bangalore/gramin-litti-adda-gla-varthur-main-road-whitefield-bangalore,"Shop D 10-11, Ground Floor, D Block, Myhna Square, Gunjur, Varthur Main Road, Whitefield, Bangalore",9.20E+11,12.9288081,77.73833949
Eastern Delights,"South Indian, North Indian, Bengali, Chinese, Rolls",450," Marathahalli, Bangalore",3.9,84.0,2.8,33.0,https://www.zomato.com/bangalore/eastern-delights-marathahalli-bangalore,"Near SR Abode Building, Silver Springs Layout, Marathahalli, Bangalore",9.20E+11,12.95921443,77.70953894
Malgudi's Donne Biriyani,"Biryani, North Indian",350," Rajajinagar, Bangalore",3.9,117.0,4.1,369.0,https://www.zomato.com/bangalore/malgudis-donne-biriyani-1-rajajinagar,"54/2, MKK Road, Srirampura, Opposite Devaiah Park, Rajajinagar, Bangalore",9.20E+11,12.9967716,77.56130498
Chikpet Donne Biryani House,"Biryani, South Indian",250," Yelahanka, Bangalore",3.9,62.0,3.9,46.0,https://www.zomato.com/bangalore/chikpet-donne-biryani-house-yelahanka,"251, Khatha 451/747/251, Bagulur, Yelahanka, Bangalore",9.20E+11,13.13225174,77.66431427
Provenance,"Cafe, Bakery, Desserts, Beverages",500," Lavelle Road, Bangalore",3.9,16.0,3.1,5.0,https://www.zomato.com/bangalore/provenance-2-lavelle-road-bangalore,"UB City, Vittal Mallya Road, Ashok Nagar, Lavelle Road, Bangalore",9.18E+11,12.9716313,77.5958117
Kapoor's Chaat Bhandaar,"Street Food, North Indian, Desserts",250," Brookefield, Bangalore",3.9,58.0,3.9,649.0,https://www.zomato.com/bangalore/kapoors-chaat-bhandaar-brookefield-bangalore,"1644, E Block, 6th Main Road, AECS Layout, Kundanahalli Gate, Brookefield, Bangalore",9.20E+11,12.96081511,77.71628737
Iris Cafe,"Fast Food, Irish, Italian, Beverages, Desserts",800," HSR, Bangalore",3.9,79.0,3.8,2.0,https://www.zomato.com/bangalore/iris-cafe-hsr-bangalore,"17/J, 18th Cross, Sector 3, HSR, Bangalore",9.18E+11,12.91183802,77.64279585
Ledikeni Sweets & Savouries,"Mithai, Desserts, Street Food",200," Marathahalli, Bangalore",3.9,7.0,3.9,99.0,https://www.zomato.com/bangalore/ledikeni-sweets-savouries-marathahalli-bangalore,"Ground Floor, NS Complex, Opposite Bank Baroda, Marathahalli, Bangalore",9.16E+11,12.95654432,77.71493219
Karachi Bakery,"Bakery, Fast Food, Beverages, Desserts, Pasta",600," Indiranagar, Bangalore",3.9,143.0,4.3,1131.0,https://www.zomato.com/bangalore/karachi-bakery-1-indiranagar-bangalore,"665, 100 Feet Road, Indiranagar, Bangalore",9.19E+11,12.97727055,77.64088947
Big Bang Pizza,"Pizza, Fast Food, Beverages",700," Frazer Town, Bangalore",3.9,79.0,3.9,580.0,https://www.zomato.com/bangalore/big-bang-pizza-3-frazer-town-bangalore,"60/1-A, Ground Floor, Coles Road, Frazer Town, Bangalore",9.20E+11,12.99470464,77.6150246
Rolling Dough Cafe,"Continental, Seafood, Salad, Desserts, Beverages, Pasta, Pizza",850," Ulsoor, Bangalore",3.9,14.0,3.6,13.0,https://www.zomato.com/bangalore/rolling-dough-cafe-1-ulsoor-bangalore,"1/2, Old 18/5, 1st Cross, Cambridge Road, Halasuru, Ulsoor, Bangalore",9.20E+11,12.97239986,77.62615711
Toping Twist,Momos,200," HSR, Bangalore",3.9,36.0,4.6,262.0,https://www.zomato.com/bangalore/toping-twist-1-hsr-bangalore,"837, 27th Main Road, 11th Cross Road, 1st Sector, HSR, Bangalore",9.19E+11,12.91737916,77.65136987
Legends Cafe,"Fast Food, Beverages, Desserts",500," Vijay Nagar, Bangalore",3.9,42.0,3.9,215.0,https://www.zomato.com/bangalore/legends-cafe-1-vijay-nagar-bangalore,"Door 91, 60 Feet Road, Chandra Layout, Vijay Nagar, Bangalore",9.20E+11,12.96073767,77.52882577
D Kitchen 54,"North Indian, Chinese, Italian, Fast Food, Mughlai, Seafood, Biryani, Beverages",800," Rajarajeshwari Nagar, Bangalore",3.9,94.0,3.3,71.0,https://www.zomato.com/bangalore/d-kitchen-54-rajarajeshwari-nagar-bangalore,"696, Ammaji Mansion, BEML Layout, 4th Stage, Rajarajeshwari Nagar, Bangalore",9.20E+11,12.91095468,77.52101585
Roof Tap,"Chinese, North Indian, Bar Food, Beverages, Fast Food",1000," Banashankari, Bangalore",3.9,9.0,3.9,0.0,https://www.zomato.com/bangalore/roof-tap-banashankari-bangalore,"2466, Bhaskar Grand Tower, 24th Cross, Stage 2, Opposite Siddanna Layout, Banashankari, Bangalore",9.20E+11,12.92441226,77.56483242
Kunafa World,Desserts,400," Frazer Town, Bangalore",3.9,97.0,4.3,516.0,https://www.zomato.com/bangalore/kunafa-world-frazer-town-bangalore,"39/1-2, Gold Mani, Cleveland Town, Pulikeshi Nagar, Coles Road, Frazer Town, Bangalore",9.18E+11,12.99547694,77.6142196
Earthen Delicacies,"North Indian, Mughlai, Chinese, Biryani, Fast Food, Beverages",700," Jakkur, Bangalore",3.9,34.0,4.2,658.0,https://www.zomato.com/bangalore/earthen-delicacies-jakkur-bangalore,"14, Thirumenahalli, Thanisandra Main Road, Opposite Haj Bhavan, Jakkur, Bangalore",9.20E+11,13.090957,77.635598
S G Rao’s Military Hotel,"South Indian, Biryani",400," Majestic, Bangalore",3.9,135.0,4.0,754.0,https://www.zomato.com/bangalore/s-g-raos-military-hotel-majestic-bangalore,"221, Police Station Road, Opposite Karnataka Bank ATM, Ranasingpet, Majestic, Bangalore",9.20E+11,12.96763886,77.57110946
Wah Parantha,"North Indian, Street Food, Beverages",450," Bellandur, Bangalore",3.9,32.0,3.9,34.0,https://www.zomato.com/bangalore/wah-parantha-1-bellandur-bangalore,"184, Green Glen Layout, 40 Feet Road, Near HDFC Bank, Bellandur, Bangalore",9.18E+11,12.92676639,77.67033678
Saha Chowmein,"North Indian, Chinese",700," Sahakara Nagar, Bangalore",3.9,173.0,4.1,637.0,https://www.zomato.com/bangalore/saha-chowmein-sahakara-nagar,"556, E Block, 60 Feet Road, Sahakara Nagar, Bangalore",9.18E+11,13.06314491,77.58696064
Board 4 Bored,"Pizza, Fast Food, Beverages, Chinese, Pasta",800," Basavanagudi, Bangalore",3.9,116.0,3.9,30.0,https://www.zomato.com/bangalore/board-4-bored-basavanagudi-bangalore,"52, 3rd Floor, Dr D V Gundappa Road, Basavanagudi, Bangalore",9.20E+11,12.94010581,77.57122915
Chaat Junction,"Street Food, North Indian, Fast Food",300," Bannerghatta Road, Bangalore",3.9,74.0,3.6,1203.0,https://www.zomato.com/bangalore/chaat-junction-1-bannerghatta-road,"Durga Complex, Central Excise Layout, Phase 2, Tejaswini Nagar, Dodda Kamanahalli Area, Bannerghatta Road, Bangalore",9.18E+11,12.86156741,77.6014372
Sicilia Point,"Fast Food, Desserts, Beverages",450," Rajajinagar, Bangalore",3.9,13.0,3.9,62.0,https://www.zomato.com/bangalore/sicilia-point-rajajinagar-bangalore,"816/1, 17th F Main, 5th Block, Rajajinagar, Bangalore",9.17E+11,12.9857736,77.55190692
Cold Monk,"Desserts, Beverages, Ice Cream, Fast Food",400," Brookefield, Bangalore",3.9,16.0,3.9,47.0,https://www.zomato.com/bangalore/cold-monk-brookefield-bangalore,"S1, SS Towers, Sai Baba Temple Road, Brookefield, Bangalore",9.18E+11,12.95023228,77.71573082
Whhite Paani Food Chain,Street Food,100," BTM, Bangalore",3.9,6.0,3.5,18.0,https://www.zomato.com/bangalore/whhite-paani-food-chain-btm-bangalore,"292, 7th Main Road, Stage 2, BTM, Bangalore",9.20E+11,12.9146516,77.60594524
Urban Food Culture,"North Indian, Chinese, Biryani, Bengali, Rolls, Pasta",300," Koramangala 1st Block, Bangalore",3.9,68.0,3.5,90.0,https://www.zomato.com/bangalore/urban-food-culture-koramangala-1st-block-bangalore,"921, 6th B Cross, 1st Main Road, Koramangala 1st Block, Bangalore",9.20E+11,12.92976522,77.63385497
Kartik's Mithai Shoppe,"Street Food, North Indian, Mithai",200," Indiranagar, Bangalore",3.9,134.0,4.3,173.0,https://www.zomato.com/bangalore/kartiks-mithai-shoppe-indiranagar,"Shop 322, Ground Floor, CMH Road, 1st Stage, Indiranagar, Bangalore",9.18E+11,12.97830655,77.63730135
Smart Mudde Spicy Fish,"South Indian, Kerala, Chinese",400," Rajarajeshwari Nagar, Bangalore",3.9,4.0,3.5,27.0,https://www.zomato.com/bangalore/smart-mudde-spicy-fish-rajarajeshwari-nagar-bangalore,"469, 3rd Main, Rajarajeshwari Nagar, Bangalore",9.19E+11,12.92199439,77.52100077
Fat Unicorn,"Desserts, Ice Cream",300," New BEL Road, Bangalore",3.9,161.0,3.9,171.0,https://www.zomato.com/bangalore/fat-unicorn-new-bel-road-bangalore,"Shop 28, Jaladarshini Layout, New BEL Road, Bangalore",9.17E+11,13.032309,77.569751
Antra Veg Restaurant,"North Indian, Chinese, Beverages, Desserts",800," Banashankari, Bangalore",3.9,24.0,3.9,39.0,https://www.zomato.com/bangalore/antra-veg-restaurant-banashankari-bangalore,"309, 100 Feet Road, Gururaja Layout, 4th Phase, 7th Block, BSK 3rd Stage, Banashankari, Bangalore",9.20E+11,12.92221856,77.55820837
Tea Positive,"Street Food, Fast Food, Tea, Beverages",400," Marathahalli, Bangalore",3.9,20.0,4.0,180.0,https://www.zomato.com/bangalore/tea-positive-marathahalli-bangalore,"MS Residency, Sai Baba Road, Munnekollal, Marathahalli, Bangalore",9.19E+11,12.94838222,77.71570265
Mayura Restaurant,"Andhra, Chinese, North Indian",700," Peenya, Bangalore",3.9,127.0,4.4,2068.0,https://www.zomato.com/bangalore/mayura-restaurant-peenya,"9, KIABD Complex, TVS Cross, Peenya, Bangalore",9.18E+11,13.02838508,77.52000667
Chaayos - Meri Wali Chai,"Tea, Street Food, Fast Food, Beverages, Desserts",400," Indiranagar, Bangalore",3.9,147.0,4.1,1929.0,https://www.zomato.com/bangalore/chaayos-meri-wali-chai-indiranagar-bangalore,"789/B, 12th Main Road, Indiranagar, Bangalore",18001202424,12.9705,77.6406
Lassi & Snacks Joint,"Beverages, Fast Food, Sandwich, Desserts, Burger, Rolls",300," Domlur, Bangalore",3.9,67.0,3.9,69.0,https://www.zomato.com/bangalore/lassi-snacks-joint-domlur-bangalore,"267, 1st Main, 6th Cross, Behind Vijaya Bank, Domlur, Bangalore",9.20E+11,12.9602211,77.63807315
Malgudi Mylari Mane ,"Biryani, South Indian",400," Yeshwantpur, Bangalore",3.9,13.0,4.1,1.0,https://www.zomato.com/bangalore/malgudi-mylari-mane-yeshwantpur-bangalore,"21, Yantaganahalli Palya, Mangalore Highway, Nelamangala, Near Bharat Petroleum Bunk, Yeshwantpur, Bangalore",9.17E+11,13.065024,77.353604
My Tea House,"Continental, Asian, Fast Food",800," Banashankari, Bangalore",3.9,99.0,3.9,297.0,https://www.zomato.com/bangalore/my-tea-house-1-banashankari-bangalore,"572, 30th Main, Stage 3, Banashankari, Bangalore",9.18E+11,12.92416064,77.56063309
Cream N Cha,"Beverages, Desserts, Fast Food",400," Indiranagar, Bangalore",3.9,80.0,3.9,830.0,https://www.zomato.com/bangalore/cream-n-cha-indiranagar-bangalore,"3168, Ground Floor, 12th Main Junction, Double Road, Indiranagar, Bangalore",9.18E+11,12.9686393,77.63600517
Desi Biryani,"Biryani, South Indian, Mangalorean, Beverages",450," Jayanagar, Bangalore",3.9,22.0,4.1,143.0,https://www.zomato.com/bangalore/desi-biryani-jayanagar-bangalore,"138, 6th C Main, 4th Block, Jayanagar, Bangalore",9.19E+11,12.9294391,77.58153923
Bangalore Bites,"Fast Food, Beverages, Chinese",300," Rajarajeshwari Nagar, Bangalore",3.9,14.0,3.9,11.0,https://www.zomato.com/bangalore/bangalore-bites-2-rajarajeshwari-nagar-bangalore,"21, Ideal Home Township, Kenchanahalli Road, Phase 1, Halagevaderhalli, Rajarajeshwari Nagar, Bangalore",9.19E+11,12.9230548,77.51836047
Naidu's Sakath Utta,"Chinese, South Indian",500," Rajajinagar, Bangalore",3.9,15.0,3.9,54.0,https://www.zomato.com/bangalore/naidus-sakath-utta-rajajinagar-bangalore,"720, Opposite Aruna Silk, 9th Cross, Dr MC Modi Hospital Road, 2nd Stage, Rajajinagar, Bangalore",9.19E+11,12.99745503,77.54820172
Gelatissimo,"Ice Cream, Desserts, Beverages",500," Kalyan Nagar, Bangalore",3.9,5.0,3.9,7.0,https://www.zomato.com/bangalore/gelatissimo-kalyan-nagar-bangalore,"507, 4th Cross, CMR Road, Kalyan Nagar, Bangalore",9.20E+11,13.02177433,77.64051497
Club Kachori,"Street Food, Fast Food",200," Sarjapur Road, Bangalore",3.9,4.0,3.9,29.0,https://www.zomato.com/bangalore/club-kachori-sarjapur-road-bangalore,"Shop G10, 19/9, Ground Floor, Sri Gaythri Complex, Carmelaram Road, Doddakannelli Village, Varthur Hobli, Sarjapur Road, Bangalore",9.18E+11,12.9051738,77.7045584
Brown Burger Co.,"Burger, Fast Food, Beverages",450," Koramangala 6th Block, Bangalore",3.9,4.0,3.3,17.0,https://www.zomato.com/bangalore/brown-burger-co-koramangala-6th-block-bangalore,"509, BTM Layout, Koramangala 6th Block, Bangalore",9.20E+11,12.93678242,77.62477438
Gowdru Hotel,"South Indian, Biryani",350," Indiranagar, Bangalore",3.9,172.0,3.8,1774.0,https://www.zomato.com/bangalore/gowdru-hotel-indiranagar,"60/1, Double Road, Opposite Muthoot Finance, 2nd Stage, Indiranagar, Bangalore",9.20E+11,12.9740194,77.635798
Rock Stone Ice Cream Factory,Ice Cream,250," BTM, Bangalore",3.9,175.0,4.0,2028.0,https://www.zomato.com/bangalore/rock-stone-ice-cream-factory-1-btm,"7/31, 7th Cross Road, Stage 2, BTM, Bangalore",9.20E+11,12.91373246,77.60795563
Kolkataz,"Bengali, North Indian, Chinese, Rolls",300," CV Raman Nagar, Bangalore",3.9,99.0,3.9,69.0,https://www.zomato.com/bangalore/kolkataz-cv-raman-nagar,"43, New Tippasandra Posr, Shantinagar, Byrasandra Main Road, Near Bagmane Techpark, CV Raman Nagar, Bangalore",9.20E+11,12.9797136,77.6656997
Karma Foods,North Indian,100," Brookefield, Bangalore",3.9,21.0,3.8,0.0,https://www.zomato.com/bangalore/karma-foods-brookefield-bangalore,"383, 5th A Cross Road, 6th Stage, BEML Layout, Brookefield, Bangalore",9.20E+11,12.95823356,77.71884989
Venu's Donne Biriyani,"Biryani, Fast Food",300," BTM, Bangalore",3.9,35.0,4.4,1068.0,https://www.zomato.com/bangalore/venus-donne-biriyani-btm-bangalore,"1, Tavarekere, Cashier Layout, Chocolate Factory Road, 1st Stage, Near AVS School, BTM, Bangalore",9.20E+11,12.92349302,77.61198297
Desi Sheikh Cafe & Bistro,"Arabian, Beverages, Fast Food",600," Kammanahalli, Bangalore",3.9,4.0,3.9,6.0,https://www.zomato.com/bangalore/desi-sheikh-cafe-bistro-kammanahalli-bangalore,"Shop 6, 2nd Main, MC Square, Dr Rajkumar Park Road, Chinappa Layout, Kammanahalli, Bangalore",9.18E+11,13.01579681,77.64018171
Juice Hive,"Fast Food, Ice Cream, Beverages, Juices",200," Bannerghatta Road, Bangalore",3.9,4.0,3.7,45.0,https://www.zomato.com/bangalore/juice-hive-bannerghatta-road-bangalore,"239/e-2/4, Gowrys Arekere, Main Road, Banerghatta Road, Bangalore",9.19E+11,12.89008339,77.59766769
The Urban Turban,"North Indian, Mughlai, Chinese",700," Sarjapur Road, Bangalore",3.9,122.0,3.9,1195.0,https://www.zomato.com/bangalore/the-urban-turban-sarjapur-road-bangalore,"Survey 131/5, Sulikunte Village, Varthur, Hoboli, Sarjapur Road, Bangalore",9.19E+11,12.885237,77.737784
Pappa Roti,"Cafe, Beverages, Desserts, Italian, Pizza, Fast Food",800," Phoenix Marketcity Bangalore, Whitefield, Bangalore",3.9,53.0,3.6,35.0,https://www.zomato.com/bangalore/pappa-roti-whitefield-bangalore,"G 01B, Phoenix Market City, Dyavasandra Industrial Area, Mahadevapura, Whitefield, Bangalore",9.19E+11,12.99579,77.696362
JukeBox,"Continental, Parsi, Chinese, North Indian, Italian, Steak",1000," Koramangala 7th Block, Bangalore",3.9,313.0,3.7,0.0,https://www.zomato.com/bangalore/jukebox-koramangala-7th-block,"359, Koramangala 7th Block, Bangalore",9.18E+11,12.93648657,77.61483584
UTHRA,North Indian,800," Indiranagar, Bangalore",3.9,148.0,3.9,49.0,https://www.zomato.com/bangalore/uthra-1-indiranagar,"6, 2nd Floor, Binnamangala 1st Stage, Near Yes Bank, C.M.H Road, Indiranagar, Bangalore",9.19E+11,12.97843626,77.63987325
Taawoon Restaurant,"South Indian, North Indian, Continental, Chinese, Seafood, Mughlai, Desserts, Beverages",750," Hennur, Bangalore",3.9,249.0,3.9,2055.0,https://www.zomato.com/taawoonrestaurant,"K Narayanapura Main Road, Kothanur, Hennur, Bangalore",9.19E+11,13.06446731,77.64848046
Eat First,"Fast Food, Chinese",200," Jayanagar, Bangalore",3.9,41.0,4.2,0.0,https://www.zomato.com/bangalore/eat-first-jayanagar-bangalore,"41, 5 Block, 38 Cross Road, 10 Main Road, Jayanagar, Bangalore",9.16E+11,12.92158819,77.58474983
Bramhin Tiffins,South Indian,100," JP Nagar, Bangalore",3.9,23.0,3.7,0.0,https://www.zomato.com/bangalore/bramhin-tiffins-jp-nagar-bangalore,"648, Ground Floor, Janardhan Towers, Opposite Elita Promenade, RBI Layout East, 5th Main Road, JP Nagar, Bangalore",9.20E+11,12.89187603,77.57944543
Sarang Multicuisine Fine Dine,"North Indian, Chinese, Continental, Mangalorean, Mughlai, Desserts, Beverages, Ice Cream",800," Vijay Nagar, Bangalore",3.9,37.0,4.4,16.0,https://www.zomato.com/bangalore/sarang-multicuisine-fine-dine-vijay-nagar-bangalore,"30/2, Floor 1, SV Complex, MC Layout, Govindaraja Nagar Ward, Vijay Nagar, Bangalore",9.20E+11,12.97870285,77.54084039
The Rich Crust,"Cafe, European, Continental",600," Sahakara Nagar, Bangalore",3.9,82.0,3.8,127.0,https://www.zomato.com/bangalore/the-rich-crust-sahakara-nagar-bangalore,"15, Shanti Vana, 5th Cross, Off Kodigehalli Main Road, Sahakara Nagar, Bangalore",9.18E+11,13.05752211,77.58745115
Fume Cafe,"Fast Food, Chinese, Burger, Pizza",400," Nagarbhavi, Bangalore",3.9,6.0,3.1,0.0,https://www.zomato.com/bangalore/fume-cafe-nagarbhavi-bangalore,"140, 141, 142 And Khata 1380, Income Tax Layout, Nagarbhavi, Bangalore",9.19E+11,12.95799374,77.51861863
Marcopolo,"Asian, Continental, North Indian, Juices, Beverages",800," Koramangala 5th Block, Bangalore",3.9,27.0,4.1,4.0,https://www.zomato.com/bangalore/marcopolo-koramangala-5th-block-bangalore,"Shop 43, Ground Floor, Koramangala Industrial Layout, 4th B Cross Road, Koramangala 5th Block, Bangalore",9.20E+11,12.934121,77.615559
PORKEATS,"Goan, Mangalorean",400," Koramangala 6th Block, Bangalore",3.9,30.0,4.2,691.0,https://www.zomato.com/bangalore/porkeats-koramangala-6th-block-bangalore,"67, 17th B Main, 6th Cross, 6th Block, Koramangala, Bangalore",9.20E+11,12.93695091,77.62433991
Desi Chats,"Street Food, North Indian",150," Whitefield, Bangalore",3.9,41.0,3.6,672.0,https://www.zomato.com/bangalore/desi-chats-whitefield-bangalore,"5, Shivaganga Complex, Behind More Mega Store, Shivaganga Layout, Whitefield, Bangalore",9.18E+11,12.98901429,77.68938549
Paanoor Restaurant & Cafe,"Biryani, South Indian",350," Hennur, Bangalore",3.9,5.0,3.7,94.0,https://www.zomato.com/bangalore/paanoor-restaurant-cafe-hennur-bangalore,"670/1, HMN Complex, Opposite Kristu Jayanti College, Hennur, Bangalore",9.19E+11,13.05803815,77.64388919
The Vembanad,"Kerala, Seafood, South Indian, Chinese",600," Kaggadasapura, Bangalore",3.9,7.0,3.8,253.0,https://www.zomato.com/bangalore/the-vembanad-kaggadasapura-bangalore,"1st Floor, Building 35, VTB Complex, Vignan Nagar, Opposite Shell Petrol Pump, Kaggadaspura, Bangalore",9.19E+11,12.9716239,77.68168151
Melting Pot at Woodrose,North Indian,800," JP Nagar, Bangalore",3.9,24.0,3.9,130.0,https://www.zomato.com/bangalore/melting-pot-at-woodrose-jp-nagar,"Woodrose Club, Brigade Millenium, 7th Main, JP Nagar, Bangalore",9.18E+11,12.89212017,77.5837373
